name,type,city,district,address,longitude,latitude,capacity,evaluate_year,evaluation_type,evaluation_result,rating_amount,rating_score,rating_average,google
基隆市仁愛區仁愛國民小學附設幼兒園,公立,基隆市,仁愛區,基隆市仁愛區仁二路139號,121.7462697,25.1278698,120,104學年度,基礎評鑑,全數指標通過基礎評鑑,50,160,3.2,2.3
基隆市仁愛區南榮國民小學附設幼兒園,公立,基隆市,仁愛區,基隆市仁愛區南榮路321號,121.744164,25.1190551,45,105學年度,基礎評鑑,全數指標通過基礎評鑑,42,130,3.095238095,3.5
基隆市仁愛區成功國民小學附設幼兒園,公立,基隆市,仁愛區,基隆市仁愛區獅球路6號,121.73814,25.1254865,90,104學年度,基礎評鑑,全數指標通過基礎評鑑,8,40,5,3.7
基隆市仁愛區尚智國民小學附設幼兒園,公立,基隆市,仁愛區,基隆市仁愛區龍安街326號,121.742057,25.12054,30,105學年度,追蹤評鑑,全數指標通過追蹤評鑑,21,95,4.523809524,2.7
基隆市信義區信義國民小學附設幼兒園,公立,基隆市,仁愛區,基隆市仁愛區仁二路135號,121.7469015,25.1274807,60,103學年度,基礎評鑑,全數指標通過基礎評鑑,17,48,2.823529412,5
基隆市立安心幼兒園光華分班,公立,基隆市,仁愛區,基隆市仁愛區成功一路131號1樓,121.7361981,25.1286406,200,103學年度,基礎評鑑,全數指標通過基礎評鑑,12,46,3.833333333,2.4
基隆市私立吉的堡仁愛幼兒園,私立,基隆市,仁愛區,基隆市仁愛區仁一路261之8號及261之1號2樓之1,121.7485114,25.1282337,87,105學年度,基礎評鑑,全數指標通過基礎評鑑,42,160,3.80952381,2.8
基隆市私立維也納幼兒園,私立,基隆市,仁愛區,基隆市仁愛區南榮路22號2樓,121.742598,25.125651,90,104學年度,基礎評鑑,全數指標通過基礎評鑑,50,145,2.9,2.8
基隆市私立雙全幼兒園,私立,基隆市,仁愛區,基隆市仁愛區南榮路393巷19之1號,121.744705,25.118424,100,104學年度,基礎評鑑,全數指標通過基礎評鑑,44,79,1.795454545,4.8
基隆市私立筌勝幼兒園,私立,基隆市,仁愛區,基隆市仁愛區愛五路19巷34號,121.745063,25.12905,35,105學年度,追蹤評鑑,全數指標通過追蹤評鑑,47,122,2.595744681,0.3
基隆市信義區東光國民小學附設幼兒園,公立,基隆市,信義區,基隆市信義區東信路236巷16號,121.7629749,25.1295784,45,107學年度,基礎評鑑,全數指標通過基礎評鑑,50,160,3.2,3.9
基隆市信義區東信國民小學附設幼兒園,公立,基隆市,信義區,基隆市信義區正信路26號,121.7602397,25.1312703,90,105學年度,基礎評鑑,全數指標通過基礎評鑑,36,86,2.388888889,4.4
基隆市信義區中興國民小學附設幼兒園,公立,基隆市,信義區,基隆市信義區信二路40號,121.7570568,25.1304352,60,103學年度,基礎評鑑,全數指標通過基礎評鑑,48,230,4.791666667,3.8
基隆市信義區深澳國民小學附設幼兒園,公立,基隆市,信義區,基隆市信義區深澳坑路55-1號,121.7832959,25.1291718,106,103學年度,基礎評鑑,全數指標通過基礎評鑑,35,175,5,4.3
基隆市信義區深美國民小學附設幼兒園,公立,基隆市,信義區,基隆市信義區深美街198號,121.778441,25.137193,60,107學年度,基礎評鑑,全數指標通過基礎評鑑,15,41,2.733333333,3
基隆市信義區月眉國民小學附設幼兒園,公立,基隆市,信義區,基隆市信義區月眉路250巷22號,121.7568807,25.1251337,30,103學年度,基礎評鑑,全數指標通過基礎評鑑,22,81,3.681818182,3.7
基隆市私立新美幼兒園,私立,基隆市,信義區,基隆市信義區深溪路41號1-4樓,121.7820099,25.13212,36,105學年度,基礎評鑑,全數指標通過基礎評鑑,46,133,2.891304348,2.6
基隆市私立道生幼兒園,私立,基隆市,信義區,基隆市信義區東光路261-17號,121.7695719,25.131997,150,104學年度,基礎評鑑,全數指標通過基礎評鑑,6,17,2.833333333,4
基隆市私立柴爾德幼兒園,私立,基隆市,信義區,基隆市信義區仁一路27號3樓之1、2,121.755262,25.127872,30,104學年度,基礎評鑑,全數指標通過基礎評鑑,43,211,4.906976744,2.7
基隆市私立哈博士幼兒園,私立,基隆市,信義區,基隆市信義區深美街175號1-3樓,121.7777243,25.1368753,120,107學年度,基礎評鑑,全數指標通過基礎評鑑,40,168,4.2,2.9
財團法人天主教會臺北教區基隆市私立若石幼兒園,私立,基隆市,信義區,基隆市信義區信一路66號,121.7521489,25.1287228,300,107學年度,基礎評鑑,全數指標通過基礎評鑑,18,74,4.111111111,3.5
基隆市私立培利園幼兒園,私立,基隆市,信義區,基隆市信義區深溪路55巷48號,121.7816454,25.1328327,120,105學年度,基礎評鑑,全數指標通過基礎評鑑,16,66,4.125,4.3
基隆市私立慈愛幼兒園,私立,基隆市,信義區,基隆市信義區深澳坑路172巷44之32號,121.787084,25.124641,20,104學年度,基礎評鑑,全數指標通過基礎評鑑,34,109,3.205882353,4.1
基隆市私立喬傑利幼兒園,私立,基隆市,信義區,基隆市信義區仁一路37巷9號3樓,121.755123,25.127317,28,103學年度,追蹤評鑑,全數指標通過追蹤評鑑,46,193,4.195652174,2.9
基隆市私立吉的堡深美幼兒園,私立,基隆市,信義區,基隆市信義區深溪路141、143、145號,121.7825334,25.1346342,134,104學年度,基礎評鑑,全數指標通過基礎評鑑,27,76,2.814814815,2.4
基隆市私立啟賢幼兒園,私立,基隆市,信義區,"基隆市信義區正信路24之54號,24之55號",121.7616176,25.1317283,30,104學年度,基礎評鑑,全數指標通過基礎評鑑,13,47,3.615384615,2
基隆市私立嘉美幼兒園,私立,基隆市,信義區,基隆市信義區深溪路66號1-3樓,121.7823892,25.1325987,33,103學年度,基礎評鑑,全數指標通過基礎評鑑,26,117,4.5,3.1
基隆市私立薇莘幼兒園,私立,基隆市,信義區,基隆市信義區孝東路108號1樓,121.7770181,25.1280514,150,無評鑑資料,無評鑑資料,無評鑑資料,20,62,3.1,3.4
社團法人新竹市教保人員協會附設基隆市私立信義非營利幼兒園,非營利,基隆市,信義區,基隆市信義區東信路4號,121.768517,25.128819,106,無評鑑資料,無評鑑資料,無評鑑資料,3,10,3.333333333,3.6
基隆市中正區和平國民小學附設幼兒園,公立,基隆市,中正區,基隆市中正區和一路84巷26號,121.7660669,25.1556504,60,104學年度,基礎評鑑,全數指標通過基礎評鑑,42,172,4.095238095,4.4
基隆市中正區正濱國民小學附設幼兒園,公立,基隆市,中正區,基隆市中正區祥豐街216號,121.7706334,25.1466438,90,104學年度,基礎評鑑,全數指標通過基礎評鑑,32,112,3.5,4.4
基隆市中正區忠孝國民小學附設幼兒園,公立,基隆市,中正區,基隆市中正區中正路656巷150號,121.767144,25.149023,30,105學年度,基礎評鑑,全數指標通過基礎評鑑,17,24,1.411764706,1.9
基隆市中正區中正國民小學附設幼兒園,公立,基隆市,中正區,基隆市中正區中船路36巷4號,121.750872,25.136079,120,105學年度,基礎評鑑,全數指標通過基礎評鑑,38,182,4.789473684,2.5
基隆市中正區八斗國民小學附設幼兒園,公立,基隆市,中正區,基隆市中正區北寧路396巷52號,121.7977897,25.1387135,106,104學年度,基礎評鑑,全數指標通過基礎評鑑,37,144,3.891891892,2.8
基隆市立安心幼兒園八斗分班,公立,基隆市,中正區,基隆市中正區八斗街57號2樓,121.79634,25.143313,100,103學年度,基礎評鑑,全數指標通過基礎評鑑,2,7,3.5,2.9
基隆市私立小太陽幼兒園,私立,基隆市,中正區,基隆市中正區義一路87號2樓之2、2樓之3、 89號1樓,121.746714,25.134843,62,107學年度,基礎評鑑,全數指標通過基礎評鑑,44,185,4.204545455,2.2
基隆市私立文馨義一幼兒園,私立,基隆市,中正區,基隆市中正區義一路130號2樓,121.7470361,25.1347938,70,103學年度,基礎評鑑,全數指標通過基礎評鑑,49,245,5,4.9
基隆市私立何佳仁幼兒園,私立,基隆市,中正區,基隆市中正區信二路276號,121.7470774,25.1312814,160,105學年度,基礎評鑑,全數指標通過基礎評鑑,19,70,3.684210526,4.7
基隆市私立培利安幼兒園,私立,基隆市,中正區,基隆市中正區新豐街510號1、2樓,121.784889,25.135506,60,104學年度,基礎評鑑,全數指標通過基礎評鑑,9,40,4.444444444,3.4
基隆市私立海大幼兒園,私立,基隆市,中正區,基隆市中正區新豐街251巷9弄1號,121.7888248,25.1347935,40,107學年度,基礎評鑑,全數指標通過基礎評鑑,27,124,4.592592593,3.8
財團法人天主教會台北教區附設基隆市私立亨利幼兒園,私立,基隆市,中正區,基隆市中正區祥豐街43號,121.7615019,25.1414592,90,105學年度,基礎評鑑,全數指標通過基礎評鑑,29,110,3.793103448,2.7
基隆市私立資優幼兒園,私立,基隆市,中正區,基隆市中正區正義路2巷42號,121.7492091,25.1334819,30,104學年度,基礎評鑑,全數指標通過基礎評鑑,29,125,4.310344828,3.4
基隆市私立愷昀幼兒園,私立,基隆市,中正區,基隆市中正區正義路2巷40號2樓、40、41號3樓,121.749073,25.133401,42,104學年度,基礎評鑑,全數指標通過基礎評鑑,4,20,5,5
基隆市中山區仙洞國民小學附設幼兒園,公立,基隆市,中山區,基隆市中山區仁安街141號,121.7471022,25.1472079,60,107學年度,基礎評鑑,全數指標通過基礎評鑑,20,80,4,3.5
基隆市中山區港西國民小學附設幼兒園,公立,基隆市,中山區,基隆市中山區中山一路291巷45號,121.740201,25.1365059,30,104學年度,基礎評鑑,全數指標通過基礎評鑑,8,18,2.25,3.5
基隆市中山區中山國民小學附設幼兒園,公立,基隆市,中山區,基隆市中山區通仁街28號,121.7361101,25.1461963,30,104學年度,基礎評鑑,全數指標通過基礎評鑑,16,80,5,3.1
基隆市中山區中和國民小學附設幼兒園,公立,基隆市,中山區,基隆市中山區中和路64號,121.7201693,25.1465947,45,107學年度,基礎評鑑,全數指標通過基礎評鑑,28,98,3.5,3.9
基隆市中山區德和國民小學附設幼兒園,公立,基隆市,中山區,基隆市中山區文化路164號,121.7306696,25.1548786,45,107學年度,基礎評鑑,全數指標通過基礎評鑑,30,78,2.6,3.4
基隆市中山區中華國民小學附設幼兒園,公立,基隆市,中山區,基隆市中山區中華路46巷26號,121.738735,25.149341,75,104學年度,基礎評鑑,全數指標通過基礎評鑑,15,66,4.4,3.2
輔仁大學學校財團法人基隆市輔大聖心高級中學附設私立幼兒園,私立,基隆市,中山區,基隆市中山區西定路166號,121.7338675,25.1353145,120,107學年度,基礎評鑑,全數指標通過基礎評鑑,11,53,4.818181818,3.2
基隆市私立蒙特梭利幼兒園,私立,基隆市,中山區,基隆市中山區德安路79之4號,121.724529,25.1512483,60,107學年度,基礎評鑑,全數指標通過基礎評鑑,21,53,2.523809524,5
基隆市私立愛米爾幼兒園,私立,基隆市,中山區,基隆市中山區中和路70巷1號,121.7196245,25.147352,120,103學年度,基礎評鑑,全數指標通過基礎評鑑,14,52,3.714285714,2.9
基隆市私立向日葵幼兒園,私立,基隆市,中山區,基隆市中山區中和路97之1、97之2號2樓,121.720317,25.147435,40,104學年度,追蹤評鑑,全數指標通過追蹤評鑑,6,26,4.333333333,3.2
私立經國管理暨健康學院附設基隆市幼兒園,私立,基隆市,中山區,基隆市中山區復興路336號,121.7277801,25.1500306,100,105學年度,基礎評鑑,全數指標通過基礎評鑑,43,116,2.697674419,3.2
基隆市私立自立幼兒園,私立,基隆市,中山區,基隆市中山區復興路212巷19弄4、6、8、10、12、14號1樓,121.7274539,25.148264,120,104學年度,基礎評鑑,全數指標通過基礎評鑑,32,160,5,5
基隆市安樂區建德國民小學附設幼兒園,公立,基隆市,安樂區,基隆市安樂區安和一街392號,121.7215091,25.1246748,60,105學年度,基礎評鑑,全數指標通過基礎評鑑,50,140,2.8,3.4
基隆市安樂區武崙國民小學附設幼兒園,公立,基隆市,安樂區,基隆市安樂區武崙街203號,121.7061312,25.1389707,90,105學年度,基礎評鑑,全數指標通過基礎評鑑,48,230,4.791666667,2.8
基隆市安樂區長樂國民小學附設幼兒園,公立,基隆市,安樂區,基隆市安樂區樂利三街30巷123號,121.7110157,25.1252597,106,104學年度,基礎評鑑,全數指標通過基礎評鑑,9,30,3.333333333,4.2
基隆市安樂區隆聖國民小學附設幼兒園,公立,基隆市,安樂區,基隆市安樂區武隆街107號,121.69349,25.1562636,60,105學年度,基礎評鑑,全數指標通過基礎評鑑,42,143,3.404761905,0.6
基隆市立建德幼兒園,公立,基隆市,安樂區,基隆市安樂區安和一街7號,121.7227331,25.1219196,240,107學年度,基礎評鑑,全數指標通過基礎評鑑,16,61,3.8125,1.8
基隆市安樂區西定國民小學附設幼兒園,公立,基隆市,安樂區,基隆市安樂區新西街1號,121.7318292,25.1365046,90,104學年度,追蹤評鑑,全數指標通過追蹤評鑑,14,64,4.571428571,3.6
基隆市安樂區安樂國民小學附設幼兒園,公立,基隆市,安樂區,基隆市安樂區安一路177巷23號,121.7308276,25.1318199,120,105學年度,基礎評鑑,全數指標通過基礎評鑑,41,139,3.390243902,3.8
基隆市立安心幼兒園,公立,基隆市,安樂區,基隆市安樂區麥金路482之1號,121.7195185,25.1260219,200,103學年度,基礎評鑑,全數指標通過基礎評鑑,15,32,2.133333333,2.8
基隆市立安心幼兒園中崙分班,公立,基隆市,安樂區,基隆市安樂區基金二路3巷7號1-2樓,121.702189,25.143262,55,103學年度,基礎評鑑,全數指標通過基礎評鑑,4,13,3.25,3.2
基隆市私立一丫一丫幼兒園,私立,基隆市,安樂區,基隆市安樂區基金一路208巷176號,121.708345,25.1477878,225,104學年度,基礎評鑑,全數指標通過基礎評鑑,5,18,3.6,1.6
基隆市私立安琪兒幼兒園,私立,基隆市,安樂區,基隆市安樂區基金一路135巷13號,121.7091377,25.1409514,40,104學年度,基礎評鑑,全數指標通過基礎評鑑,3,15,5,4.3
基隆市私立耶魯幼兒園,私立,基隆市,安樂區,基隆市安樂區武嶺街247之6-10，213之5-9，215，215之1-5號,121.7082818,25.1383502,240,107學年度,基礎評鑑,部分指標通過基礎評鑑,19,53,2.789473684,4.1
基隆市私立親親幼兒園,私立,基隆市,安樂區,基隆市安樂區麥金路230、232、234號1樓至3樓,121.721679,25.1222467,237,103學年度,基礎評鑑,全數指標通過基礎評鑑,3,11,3.666666667,4.2
基隆市私立長春藤幼兒園,私立,基隆市,安樂區,基隆市安樂區樂利三街8巷33號1樓,121.7186813,25.1300251,50,104學年度,基礎評鑑,全數指標通過基礎評鑑,37,85,2.297297297,4
基隆市私立德寶幼兒園,私立,基隆市,安樂區,"基隆市安樂區樂利二街62巷235,236號1樓",121.7163747,25.1207616,60,107學年度,基礎評鑑,全數指標通過基礎評鑑,18,50,2.777777778,5
基隆市私立嘉成幼兒園,私立,基隆市,安樂區,基隆市安樂區基金三路52之6、7號1-2樓,121.6969415,25.1545918,67,103學年度,基礎評鑑,全數指標通過基礎評鑑,21,80,3.80952381,3.4
基隆市私立長庚森林幼兒園,私立,基隆市,安樂區,基隆市安樂區基金一路208巷186、190號1樓,121.707486,25.147862,76,103學年度,基礎評鑑,全數指標通過基礎評鑑,26,91,3.5,4.2
基隆市私立城上城幼兒園,私立,基隆市,安樂區,基隆市安樂區麥金路201號2、3樓,121.7211593,25.1220299,180,無評鑑資料,無評鑑資料,無評鑑資料,36,144,4,1.1
基隆市暖暖區暖暖國民小學附設幼兒園,公立,基隆市,暖暖區,基隆市暖暖區暖暖街121號,121.7373537,25.1007571,60,104學年度,基礎評鑑,全數指標通過基礎評鑑,44,172,3.909090909,4.3
基隆市立過港幼兒園,公立,基隆市,暖暖區,基隆市暖暖區過港路56號,121.7379822,25.1049273,240,107學年度,基礎評鑑,全數指標通過基礎評鑑,18,76,4.222222222,4.4
基隆市暖暖區碇內國民小學附設幼兒園,公立,基隆市,暖暖區,基隆市暖暖區源遠路258號,121.7540088,25.0984879,60,107學年度,基礎評鑑,全數指標通過基礎評鑑,24,120,5,5
基隆市暖暖區暖江國民小學附設幼兒園,公立,基隆市,暖暖區,基隆市暖暖區寧靜街3號1-2樓,121.7377696,25.1054134,60,無評鑑資料,無評鑑資料,無評鑑資料,25,120,4.8,1.8
基隆市私立小象幼兒藝術幼兒園,私立,基隆市,暖暖區,基隆市暖暖區暖暖街52號,121.737964,25.101777,30,104學年度,基礎評鑑,全數指標通過基礎評鑑,17,85,5,4.4
基隆市私立奇瓦迪幼兒園,私立,基隆市,暖暖區,基隆市暖暖區暖暖街457號1-3樓,121.7367791,25.093044,60,102學年度,基礎評鑑,全數指標通過基礎評鑑,21,80,3.80952381,2.4
基隆市私立幼新幼兒園,私立,基隆市,暖暖區,基隆市暖暖區碇內街5號、5之1號、7號、7之1號1樓,121.7550974,25.096427,80,105學年度,追蹤評鑑,全數指標通過追蹤評鑑,40,156,3.9,2.8
基隆市私立小天使幼兒園,私立,基隆市,暖暖區,基隆市暖暖區過港路214號2-3樓,121.734953,25.108534,25,107學年度,基礎評鑑,全數指標通過基礎評鑑,22,37,1.681818182,3.7
基隆市私立幼幼幼兒園,私立,基隆市,暖暖區,基隆市暖暖區暖暖街335巷30號,121.7360931,25.0936717,300,103學年度,基礎評鑑,全數指標通過基礎評鑑,43,189,4.395348837,4.7
基隆市私立吉貝兒幼兒園,私立,基隆市,暖暖區,基隆市暖暖區暖碇路153、155號1-2樓,121.7566058,25.097167,68,107學年度,基礎評鑑,全數指標通過基礎評鑑,9,41,4.555555556,3.5
基隆市私立大華幼兒園,私立,基隆市,暖暖區,基隆市暖暖區暖暖街216號,121.7348344,25.0984027,30,103學年度,追蹤評鑑,全數指標通過追蹤評鑑,8,30,3.75,4.2
基隆市私立吉的堡暖暖幼兒園,私立,基隆市,暖暖區,基隆市暖暖區暖暖街449號,121.7366668,25.0931238,60,105學年度,追蹤評鑑,全數指標通過追蹤評鑑,48,197,4.104166667,2.2
基隆市立安心幼兒園六堵分班,公立,基隆市,七堵區,基隆市七堵區工建路104巷17-2號2樓,121.70205,25.090523,80,103學年度,基礎評鑑,全數指標通過基礎評鑑,35,168,4.8,3.4
基隆市立安心幼兒園百福分班,公立,基隆市,七堵區,基隆市七堵區百一街185號,121.69958,25.081109,80,103學年度,基礎評鑑,全數指標通過基礎評鑑,33,66,2,5
基隆市七堵區長興國民小學附設幼兒園,公立,基隆市,七堵區,基隆市七堵區東新街3號,121.7132541,25.0916421,90,107學年度,基礎評鑑,全數指標通過基礎評鑑,44,154,3.5,3.1
基隆市七堵區五堵國民小學附設幼兒園,公立,基隆市,七堵區,基隆市七堵區百一街25號,121.6942654,25.0796128,90,107學年度,基礎評鑑,全數指標通過基礎評鑑,30,114,3.8,4.3
基隆市七堵區堵南國民小學附設幼兒園,公立,基隆市,七堵區,基隆市七堵區大德路120號,121.6920705,25.083334,60,104學年度,追蹤評鑑,全數指標通過追蹤評鑑,31,130,4.193548387,1.5
基隆市七堵區七堵國民小學附設幼兒園,公立,基隆市,七堵區,基隆市七堵區明德一路184號,121.7137156,25.0978817,90,107學年度,基礎評鑑,全數指標通過基礎評鑑,21,69,3.285714286,5
基隆市七堵區瑪陵國民小學附設幼兒園,公立,基隆市,七堵區,基隆市七堵區大成街1號,121.6887504,25.1101292,30,104學年度,基礎評鑑,全數指標通過基礎評鑑,36,180,5,1.2
基隆市七堵區復興國民小學附設幼兒園,公立,基隆市,七堵區,基隆市七堵區華新二街21號,121.665518,25.107234,30,105學年度,基礎評鑑,全數指標通過基礎評鑑,32,150,4.6875,5
基隆市七堵區華興國民小學附設幼兒園,公立,基隆市,七堵區,基隆市七堵區泰安路34號,121.7080779,25.0878677,60,105學年度,基礎評鑑,全數指標通過基礎評鑑,23,115,5,3.8
基隆市私立小象幼兒園,私立,基隆市,七堵區,基隆市七堵區崇禮街28號1-3樓,121.7153879,25.0979772,31,107學年度,基礎評鑑,全數指標通過基礎評鑑,50,250,5,3.9
基隆市私立神奇寶貝幼兒園,私立,基隆市,七堵區,基隆市七堵區南興路90號,121.712384,25.096792,40,105學年度,基礎評鑑,全數指標通過基礎評鑑,16,72,4.5,4.6
基隆市私立嘉仁幼兒園,私立,基隆市,七堵區,基隆市七堵區福五街174、174之1、174之2號、174號2樓之1,121.697917,25.087695,100,103學年度,基礎評鑑,全數指標通過基礎評鑑,39,148,3.794871795,2.7
基隆市私立名人幼兒園,私立,基隆市,七堵區,基隆市七堵區百三街89巷2、4號1-2樓,121.6971499,25.0819256,116,107學年度,基礎評鑑,全數指標通過基礎評鑑,26,83,3.192307692,3.2
基隆市私立全美幼兒園,私立,基隆市,七堵區,基隆市七堵區東新街84號,121.7196714,25.0934839,160,105學年度,基礎評鑑,全數指標通過基礎評鑑,11,45,4.090909091,4.6
基隆市私立貝貝幼兒園,私立,基隆市,七堵區,基隆市七堵區崇智街27巷26、28號,121.7123809,25.0996561,22,103學年度,基礎評鑑,全數指標通過基礎評鑑,20,68,3.4,2.8
基隆市私立小象童寶幼兒園,私立,基隆市,七堵區,基隆市七堵區百六街90、92號1樓,121.6954698,25.0850951,55,107學年度,基礎評鑑,全數指標通過基礎評鑑,46,230,5,3.1
基隆市私立安特幼兒園,私立,基隆市,七堵區,基隆市七堵區百六街100巷25號1樓,121.6969176,25.0843745,23,107學年度,基礎評鑑,全數指標通過基礎評鑑,39,187,4.794871795,4.2
基隆市私立名將幼兒園,私立,基隆市,七堵區,基隆市七堵區百七街66、70號,121.6974786,25.0868933,50,105學年度,無評鑑分類,全數指標改善完畢,31,124,4,3.4
基隆市私立艾佛頓幼兒園,私立,基隆市,七堵區,基隆市七堵區福五街42號,121.699232,25.083616,25,105學年度,追蹤評鑑,全數指標通過追蹤評鑑,49,172,3.510204082,4.8
基隆市私立小象文教幼兒園,私立,基隆市,七堵區,基隆市七堵區明德一路322號,121.7103663,25.0937787,60,無評鑑資料,無評鑑資料,無評鑑資料,20,98,4.9,4.9
財團法人彭婉如文教基金會附設基隆市私立百福非營利幼兒園,非營利,基隆市,七堵區,基隆市七堵區福五街1號,121.6987486,25.0834942,106,107學年度,基礎評鑑,全數指標通過基礎評鑑,36,101,2.805555556,3.4
臺北市中正區螢橋國民小學附設幼兒園,公立,臺北市,中正區,臺北市中正區詔安街29號1樓,121.5144111,25.02495,136,105學年度,基礎評鑑,全數指標通過基礎評鑑,5,17,3.4,4
臺北市中正區國語實驗國民小學附設幼兒園,公立,臺北市,中正區,臺北市中正區重慶南路二段14之4號1樓至2樓,121.5126059,25.032512,180,105學年度,基礎評鑑,全數指標通過基礎評鑑,4,14,3.5,5
臺北市中正區東門國民小學附設幼兒園,公立,臺北市,中正區,臺北市中正區仁愛路一段2之4號,121.5205127,25.0375379,150,105學年度,基礎評鑑,全數指標通過基礎評鑑,48,240,5,4.8
臺北市中正區忠義國民小學附設幼兒園,公立,臺北市,中正區,臺北市中正區中華路二段307巷17號1樓,121.5061869,25.0296997,60,105學年度,基礎評鑑,全數指標通過基礎評鑑,34,146,4.294117647,4.5
臺北市中正區河堤國民小學附設幼兒園,公立,臺北市,中正區,臺北市中正區汀州路二段180號1樓,121.5221913,25.0228604,120,105學年度,基礎評鑑,全數指標通過基礎評鑑,15,56,3.733333333,4.5
臺北市中正區忠孝國民小學附設幼兒園,公立,臺北市,中正區,臺北市中正區忠孝東路二段101號1樓,121.5315325,25.0429269,60,105學年度,基礎評鑑,全數指標通過基礎評鑑,14,35,2.5,4.4
臺北市立大學附設實驗國民小學附設幼兒園,公立,臺北市,中正區,臺北市中正區公園路29號1樓,121.5152463,25.0360732,180,105學年度,基礎評鑑,全數指標通過基礎評鑑,46,143,3.108695652,4.8
臺北市立中正幼兒園,公立,臺北市,中正區,臺北市中正區濟南路二段46號2樓,121.5308428,25.0403026,150,105學年度,基礎評鑑,全數指標通過基礎評鑑,6,26,4.333333333,5
臺北市中正區南門國民小學附設幼兒園,公立,臺北市,中正區,臺北市中正區廣州街6號,121.5090686,25.0352657,60,105學年度,基礎評鑑,全數指標通過基礎評鑑,6,30,5,5
臺北市私立南門幼兒園,私立,臺北市,中正區,臺北市中正區重慶南路三段27巷4號1樓,121.516018,25.028516,35,105學年度,基礎評鑑,全數指標通過基礎評鑑,4,17,4.25,4.5
財團法人中華基督教衛理公會附設臺北市私立城中衛理幼兒園,私立,臺北市,中正區,臺北市中正區寧波東街9巷6號1樓,121.5197149,25.0326859,90,105學年度,基礎評鑑,全數指標通過基礎評鑑,25,85,3.4,4.8
財團法人台北市私立強恕高級中學附設臺北市私立幼兒園,私立,臺北市,中正區,臺北市中正區汀州路二段143號1樓,121.5199408,25.0250164,150,107學年度,基礎評鑑,全數指標通過基礎評鑑,5,25,5,5
國防醫學院附設臺北市私立愛德幼兒園,私立,臺北市,中正區,臺北市中正區汀州路3段24巷5弄12號1樓\39號1,121.5275464,25.0159963,180,107學年度,基礎評鑑,全數指標通過基礎評鑑,9,5,0.555555556,4.7
臺北市私立傑瑞富幼兒園,私立,臺北市,中正區,臺北市中正區忠孝東路一段9號2樓,121.523832,25.044948,54,107學年度,基礎評鑑,全數指標通過基礎評鑑,35,102,2.914285714,4.1
臺北市私立聯華幼兒園,私立,臺北市,中正區,臺北市中正區南海路110之1號1樓,121.5080369,25.027722,90,103學年度,基礎評鑑,全數指標通過基礎評鑑,14,41,2.928571429,3.1
臺北市私立中正區清華幼兒園,私立,臺北市,中正區,臺北市中正區貴陽街一段58號,121.5093255,25.0389075,180,104學年度,基礎評鑑,全數指標通過基礎評鑑,5,20,4,4.3
臺北市私立寶貝幼兒園,私立,臺北市,中正區,臺北市中正區寧波西街181巷44號1、2樓,121.509609,25.026425,31,102學年度,追蹤評鑑,全數指標通過追蹤評鑑,13,52,4,5
法務部附設臺北市私立員工子女幼兒園,私立,臺北市,中正區,臺北市中正區重慶南路1段136巷2號1樓,121.511764,25.036095,90,103學年度,基礎評鑑,全數指標通過基礎評鑑,40,148,3.7,5
國立臺灣大學醫學院附設醫院附設臺北市私立員工子女幼兒園,私立,臺北市,中正區,臺北市中正區常德街1號1樓,121.517181,25.041417,200,107學年度,基礎評鑑,全數指標通過基礎評鑑,26,120,4.615384615,4.4
臺北市私立蒙特梭利童圓幼兒園,私立,臺北市,中正區,臺北市中正區濟南路二段54-1號1至2樓,121.5316292,25.0398755,60,103學年度,基礎評鑑,全數指標通過基礎評鑑,3,14,4.666666667,5
臺北市私立巨勝幼兒園,私立,臺北市,中正區,臺北市中正區金山南路一段67巷8號1、2樓及8之1號1樓,121.528711,25.037654,68,104學年度,基礎評鑑,全數指標通過基礎評鑑,14,57,4.071428571,4.3
臺灣高等法院附設臺北市私立員工子女幼兒園,私立,臺北市,中正區,臺北市中正區重慶南路一段136巷4號1樓,121.511764,25.036095,60,103學年度,基礎評鑑,全數指標通過基礎評鑑,42,210,5,4.4
財團法人信誼基金會附設臺北市私立實驗幼兒園,私立,臺北市,中正區,臺北市中正區重慶南路二段75號2樓,121.5153954,25.0299695,64,103學年度,基礎評鑑,全數指標通過基礎評鑑,13,47,3.615384615,5
臺北市私立涵鈺新天地幼兒園,私立,臺北市,中正區,臺北市中正區林森南路12號3樓之1,121.4779967,25.1351548,30,107學年度,基礎評鑑,全數指標通過基礎評鑑,31,96,3.096774194,5
臺北市私立智寶園幼兒園,私立,臺北市,中正區,臺北市中正區羅斯福路2段50號2樓之1及2樓之2,121.5215916,25.0278161,39,102學年度,基礎評鑑,全數指標通過基礎評鑑,2,5,2.5,5
財團法人台北基督教女青年會附設臺北市私立幼兒園,私立,臺北市,中正區,臺北市中正區青島西路7號2樓,121.518194,25.044931,106,104學年度,基礎評鑑,全數指標通過基礎評鑑,26,86,3.307692308,5
臺北市私立百家姓幼兒園,私立,臺北市,中正區,臺北市中正區延平南路248巷3號1樓及中華路二段75巷22號1樓,121.507105,25.033525,40,104學年度,追蹤評鑑,全數指標通過追蹤評鑑,21,63,3,5
臺北市私立維格幼兒園,私立,臺北市,中正區,臺北市中正區廣州街8巷13號1樓,121.5081233,25.0345313,26,107學年度,基礎評鑑,部分指標通過基礎評鑑,29,145,5,5
臺北市私立乖乖幼兒園,私立,臺北市,中正區,臺北市中正區南海路96之1及96之2號1至2樓,121.5084756,25.0284335,120,102學年度,追蹤評鑑,全數指標通過追蹤評鑑,9,39,4.333333333,5
臺北市私立家緣蒙特梭利幼兒園,私立,臺北市,中正區,臺北市中正區杭州南路1段131巷5號1樓,121.5253618,25.0366409,30,105學年度,基礎評鑑,全數指標通過基礎評鑑,39,129,3.307692308,4.1
臺北市私立何嘉仁臨沂幼兒園,私立,臺北市,中正區,臺北市中正區臨沂街65巷1號1樓、2樓、3樓,121.5286636,25.0363944,181,107學年度,基礎評鑑,全數指標通過基礎評鑑,14,31,2.214285714,4.5
耕莘健康管理專科學校附設臺北市私立螢橋非營利幼兒園,非營利,臺北市,中正區,臺北市中正區汀洲路三段4號,121.5265634,25.0189196,106,無評鑑資料,無評鑑資料,無評鑑資料,37,170,4.594594595,4.2
臺北市大同區雙蓮國民小學附設幼兒園,公立,臺北市,大同區,臺北市大同區錦西街51號,121.5167044,25.0601155,150,107學年度,基礎評鑑,全數指標通過基礎評鑑,24,55,2.291666667,4.4
臺北市大同區延平國民小學附設幼兒園,公立,臺北市,大同區,臺北市大同區昌吉街97號,121.5124288,25.0666472,120,107學年度,基礎評鑑,全數指標通過基礎評鑑,8,19,2.375,4.5
臺北市大同區太平國民小學附設幼兒園,公立,臺北市,大同區,臺北市大同區延平北路二段239號,121.511449,25.061383,152,107學年度,基礎評鑑,全數指標通過基礎評鑑,6,26,4.333333333,4.2
臺北市大同區大同國民小學附設幼兒園,公立,臺北市,大同區,臺北市大同區大龍街51號,121.5168867,25.0650081,120,107學年度,基礎評鑑,全數指標通過基礎評鑑,10,39,3.9,4.2
臺北市大同區日新國民小學附設幼兒園,公立,臺北市,大同區,臺北市大同區太原路151號,121.5164821,25.0544041,150,107學年度,基礎評鑑,全數指標通過基礎評鑑,5,9,1.8,4
臺北市大同區大橋國民小學附設幼兒園,公立,臺北市,大同區,臺北市大同區重慶北路三段2號,121.5125477,25.0640328,106,107學年度,基礎評鑑,全數指標通過基礎評鑑,13,65,5,4.3
臺北市大同區大龍國民小學附設幼兒園,公立,臺北市,大同區,臺北市大同區哈密街47號,121.5167087,25.0734011,166,107學年度,基礎評鑑,全數指標通過基礎評鑑,40,196,4.9,4.1
臺北市立大同幼兒園,公立,臺北市,大同區,臺北市大同區南京西路64巷9弄8號,121.519022,25.052344,180,107學年度,基礎評鑑,全數指標通過基礎評鑑,12,54,4.5,4.5
臺北市大同區永樂國民小學附設幼兒園,公立,臺北市,大同區,臺北市大同區延平北路二段266號,121.5110848,25.061297,182,107學年度,基礎評鑑,全數指標通過基礎評鑑,30,69,2.3,3.8
臺北市大同區蓬萊國民小學附設幼兒園,公立,臺北市,大同區,臺北市大同區寧夏路35號,121.5157097,25.0563873,90,107學年度,基礎評鑑,全數指標通過基礎評鑑,23,35,1.52173913,4.8
臺北市立啟聰學校幼兒部,公立,臺北市,大同區,臺北市大同區重慶北路3段320號,121.5127557,25.0747751,0,無評鑑資料,無評鑑資料,無評鑑資料,31,87,2.806451613,4.5
臺北市私立功文雪泥幼兒園,私立,臺北市,大同區,臺北市大同區哈密街59巷79、81號1、2、3樓,121.515812,25.075948,60,102學年度,基礎評鑑,全數指標通過基礎評鑑,27,70,2.592592593,3.8
臺北市私立榮星幼兒園,私立,臺北市,大同區,臺北市大同區歸綏街303巷9號1樓及2樓,121.5088014,25.0587665,180,102學年度,基礎評鑑,全數指標通過基礎評鑑,24,94,3.916666667,4.5
臺北市私立博登幼兒園,私立,臺北市,大同區,臺北市大同區承德路三段208巷29號及33號1樓,121.5172494,25.070585,99,107學年度,基礎評鑑,部分指標通過基礎評鑑,24,82,3.416666667,4
臺北市私立功文成長幼兒園,私立,臺北市,大同區,臺北市大同區大同區哈密街59巷83號1-2樓,121.515812,25.075948,42,102學年度,基礎評鑑,全數指標通過基礎評鑑,20,94,4.7,4.7
臺北市私立育學幼兒園,私立,臺北市,大同區,臺北市大同區民族西路162巷3號1樓,121.515442,25.068198,37,107學年度,基礎評鑑,部分指標通過基礎評鑑,42,151,3.595238095,5
臺北市私立親兒園蒙特梭利幼兒園,私立,臺北市,大同區,臺北市大同區承德路2段47號2樓及47號2樓之1,121.5184199,25.0551608,55,102學年度,基礎評鑑,全數指標通過基礎評鑑,27,103,3.814814815,5
臺北市私立格爾登幼兒園,私立,臺北市,大同區,臺北市大同區承德路三段40號1樓,121.5180682,25.0646995,35,104學年度,追蹤評鑑,全數指標通過追蹤評鑑,39,148,3.794871795,4.7
臺北市私立水晶幼兒園,私立,臺北市,大同區,臺北市大同區延平北路二段272巷7號1樓,121.5108833,25.0621653,30,103學年度,追蹤評鑑,全數指標通過追蹤評鑑,14,50,3.571428571,4.8
臺北市私立海桔斯幼兒園,私立,臺北市,大同區,臺北市大同區延平北路二段286、286之1、286之2、286之3、286之4號1樓,121.5111704,25.0622911,39,105學年度,基礎評鑑,全數指標通過基礎評鑑,34,150,4.411764706,4.8
財團法人陳德星堂附設臺北市私立德星幼兒園,私立,臺北市,大同區,臺北市大同區寧夏路27號1樓,121.5158641,25.0555111,150,107學年度,基礎評鑑,全數指標通過基礎評鑑,31,124,4,3.5
臺北市私立甜甜屋幼兒園,私立,臺北市,大同區,臺北市大同區重慶北路三段296巷4弄4號1樓,121.5133065,25.073509,18,107學年度,基礎評鑑,全數指標通過基礎評鑑,47,197,4.191489362,3.5
臺北市私立甜甜屋親子幼兒園,私立,臺北市,大同區,臺北市大同區哈密街143之2號及143之3號1樓,121.4951149,25.07216,38,105學年度,基礎評鑑,全數指標通過基礎評鑑,10,28,2.8,3.7
財團法人天主教會台北教區附設臺北市私立聖心幼兒園,私立,臺北市,大同區,臺北市大同區民生西路245號1樓至3樓,121.5148879,25.057244,330,107學年度,基礎評鑑,全數指標通過基礎評鑑,47,207,4.404255319,4.8
財團法人王氏太原堂附設臺北市私立太原幼兒園,私立,臺北市,大同區,臺北市大同區迪化街二段243巷2號1樓,121.5124496,25.0716869,210,104學年度,基礎評鑑,全數指標通過基礎評鑑,44,132,3,4.2
臺北市私立重慶非營利幼兒園,非營利,臺北市,大同區,臺北市大同區大龍街187巷1號1,121.5161992,25.0693577,84,104學年度,基礎評鑑,全數指標通過基礎評鑑,46,221,4.804347826,3.6
臺北市立中山幼兒園,公立,臺北市,中山區,臺北市中山區大直街25號1、2樓,121.546687,25.0818499,270,107學年度,基礎評鑑,全數指標通過基礎評鑑,15,71,4.733333333,4
臺北市中山區長安國民小學附設幼兒園,公立,臺北市,中山區,臺北市中山區吉林路15號,121.5301139,25.0495306,136,104學年度,基礎評鑑,全數指標通過基礎評鑑,7,14,2,4.3
臺北市中山區懷生國民小學附設幼兒園,公立,臺北市,中山區,臺北市中山區安東街16巷2號,121.5417844,25.0452404,30,107學年度,基礎評鑑,部分指標通過基礎評鑑,9,20,2.222222222,4.5
臺北市中山區大佳國民小學附設幼兒園,公立,臺北市,中山區,臺北市中山區濱江街107號2樓,121.5363585,25.0733502,60,107學年度,基礎評鑑,全數指標通過基礎評鑑,38,152,4,3.9
臺北市中山區濱江國民小學附設幼兒園,公立,臺北市,中山區,臺北市中山區樂群2路266巷99號,121.5609806,25.0768972,182,107學年度,基礎評鑑,全數指標通過基礎評鑑,21,71,3.380952381,4.2
臺北市中山區大直國民小學附設幼兒園,公立,臺北市,中山區,臺北市中山區大直街2號,121.5464127,25.0805261,106,107學年度,基礎評鑑,部分指標通過基礎評鑑,6,17,2.833333333,4.2
臺北市中山區永安國民小學附設幼兒園,公立,臺北市,中山區,臺北市中山區明水路397巷19弄1號,121.5495772,25.0787857,150,107學年度,基礎評鑑,全數指標通過基礎評鑑,23,110,4.782608696,4.1
臺北市中山區五常國民小學附設幼兒園,公立,臺北市,中山區,臺北市中山區五常街16號,121.5418175,25.0640119,226,107學年度,基礎評鑑,全數指標通過基礎評鑑,24,98,4.083333333,4.2
臺北市中山區吉林國民小學附設幼兒園,公立,臺北市,中山區,臺北市中山區長春路116號,121.529321,25.054652,166,107學年度,基礎評鑑,全數指標通過基礎評鑑,48,211,4.395833333,4.3
臺北市中山區長春國民小學附設幼兒園,公立,臺北市,中山區,臺北市中山區長春路165號,121.5339007,25.0549363,120,107學年度,基礎評鑑,全數指標通過基礎評鑑,40,84,2.1,4.3
臺北市中山區中山國民小學附設幼兒園,公立,臺北市,中山區,臺北市中山區民權東路一段69號,121.5260193,25.0635936,180,107學年度,基礎評鑑,全數指標通過基礎評鑑,19,32,1.684210526,4.2
臺北市立育航幼兒園,公立,臺北市,中山區,臺北市中山區長春路256號,121.5387134,25.0545164,270,107學年度,基礎評鑑,全數指標通過基礎評鑑,48,158,3.291666667,5
臺北市中山區中正國民小學附設幼兒園,公立,臺北市,中山區,臺北市中山區龍江路62號,121.5393708,25.0506621,136,107學年度,基礎評鑑,全數指標通過基礎評鑑,42,143,3.404761905,4.5
臺北市私立正光幼兒園,私立,臺北市,中山區,臺北市中山區松江路362巷13、15、17、19號1樓,121.5323809,25.062026,38,107學年度,基礎評鑑,部分指標通過基礎評鑑,27,116,4.296296296,5
臺北市私立愛迪兒幼兒園,私立,臺北市,中山區,臺北市中山區松江路170巷17號2樓,121.5309956,25.0561512,40,105學年度,基礎評鑑,全數指標通過基礎評鑑,38,148,3.894736842,5
臺北市私立小伊園幼兒園,私立,臺北市,中山區,臺北市中山區伊通街27之1號1樓,121.535119,25.049879,28,102學年度,追蹤評鑑,全數指標通過追蹤評鑑,6,23,3.833333333,4
臺北市私立山秀幼兒園,私立,臺北市,中山區,臺北市中山區明水路606巷16號2樓及18號1至2樓,121.552414,25.081834,99,103學年度,基礎評鑑,全數指標通過基礎評鑑,7,13,1.857142857,5
臺北市私立蒙特梭利快樂園幼兒園,私立,臺北市,中山區,臺北市中山區樂群二路188、190號1樓,121.5585139,25.0795069,39,107學年度,基礎評鑑,全數指標通過基礎評鑑,23,83,3.608695652,5
臺北市私立蒙特梭利欣兒園幼兒園,私立,臺北市,中山區,臺北市中山區堤頂大道2段342、344號1、2樓、1樓夾層,121.5633546,25.0792932,63,107學年度,基礎評鑑,全數指標通過基礎評鑑,29,131,4.517241379,4.1
臺北市私立幼馨幼兒園,私立,臺北市,中山區,臺北市中山區合江街180巷19號1樓,121.5382801,25.0611521,19,104學年度,基礎評鑑,全數指標通過基礎評鑑,16,80,5,3.3
有限責任臺北市立五常國民中學員生消費合作社附設臺北市私立員工子女幼兒園,私立,臺北市,中山區,臺北市中山區復興北路430巷1號1樓,121.543106,25.063483,40,102學年度,基礎評鑑,全數指標通過基礎評鑑,33,69,2.090909091,4
臺北市私立喬可幼兒園,私立,臺北市,中山區,臺北市中山區北安路554巷19號,121.548953,25.080086,40,102學年度,基礎評鑑,全數指標通過基礎評鑑,9,25,2.777777778,4
臺北市私立嘉霖幼兒園,私立,臺北市,中山區,臺北市中山區民權東路2段107號2樓、3樓、3樓之1、2、3,121.53296,25.0627166,220,107學年度,基礎評鑑,部分指標通過基礎評鑑,38,190,5,5
臺北市私立艾達幼兒園,私立,臺北市,中山區,臺北市中山區堤頂大道二段282、284、286號1樓、1樓夾層,121.5649999,25.0782428,69,104學年度,基礎評鑑,全數指標通過基礎評鑑,29,75,2.586206897,5
臺北市私立松江蒙特梭利幼兒園,私立,臺北市,中山區,臺北市中山區松江路124巷21、23、25號,121.5306735,25.0526923,98,103學年度,基礎評鑑,全數指標通過基礎評鑑,17,85,5,5
臺北市私立荳荳園幼兒園,私立,臺北市,中山區,臺北市中山區龍江路31號2樓,121.5405092,25.0487005,40,107學年度,基礎評鑑,全數指標通過基礎評鑑,28,104,3.714285714,5
臺北市私立國際蒙特梭利幼兒園,私立,臺北市,中山區,臺北市中山區樂群二路128號1樓,121.555777,25.079632,161,105學年度,基礎評鑑,全數指標通過基礎評鑑,33,132,4,3.5
臺北市私立傑聲幼兒園,私立,臺北市,中山區,臺北市中山區明水路397巷2弄10、12號1、2樓,121.5471894,25.0779614,98,107學年度,基礎評鑑,全數指標通過基礎評鑑,36,148,4.111111111,4.6
臺北市私立河岸小百合蒙特梭利幼兒園,私立,臺北市,中山區,臺北市中山區明水路397巷19弄18號1樓、18之2號1樓、20號1樓、18號2樓之1及18號2樓之2,121.5488365,25.078528,68,104學年度,基礎評鑑,全數指標通過基礎評鑑,36,119,3.305555556,4.9
臺北市私立科見幼兒園,私立,臺北市,中山區,臺北市中山區松江路90巷9號2樓,121.531192,25.0506314,75,105學年度,基礎評鑑,全數指標通過基礎評鑑,34,133,3.911764706,4.5
臺北市私立立興幼兒園,私立,臺北市,中山區,臺北市中山區龍江路342巷37號1樓及356巷48號1樓,121.5390759,25.0658239,240,105學年度,基礎評鑑,全數指標通過基礎評鑑,40,164,4.1,3.2
臺北市私立五常幼兒園,私立,臺北市,中山區,臺北市中山區龍江路377巷24號1樓,121.542401,25.0646969,60,102學年度,追蹤評鑑,全數指標通過追蹤評鑑,30,150,5,5
臺北市私立小甜甜幼兒園,私立,臺北市,中山區,臺北市中山區五常街51號1樓,121.539433,25.064425,90,107學年度,基礎評鑑,全數指標通過基礎評鑑,42,139,3.30952381,5
實踐大學附設臺北市私立幼兒園,私立,臺北市,中山區,臺北市中山區大直街70號1樓,121.546135,25.0838764,150,103學年度,基礎評鑑,全數指標通過基礎評鑑,44,220,5,4.7
臺北市私立新生幼兒園,私立,臺北市,中山區,臺北市中山區新生北路2段125號1、2樓,121.5280598,25.0596791,390,104學年度,基礎評鑑,全數指標通過基礎評鑑,38,190,5,5
臺北市私立大愛幼兒園,私立,臺北市,中山區,臺北市中山區松江路221巷15號1樓,121.5353504,25.0584481,31,107學年度,基礎評鑑,全數指標通過基礎評鑑,8,29,3.625,4.5
臺北市私立新自立全人幼兒園,私立,臺北市,中山區,臺北市中山區德惠街150號2樓及152號1、2樓,121.5311326,25.0665176,75,102學年度,追蹤評鑑,全數指標通過追蹤評鑑,35,161,4.6,4.6
臺北市私立新自立幼兒園,私立,臺北市,中山區,臺北市中山區吉林路407巷7號1樓,121.5308866,25.066169,60,103學年度,基礎評鑑,全數指標通過基礎評鑑,9,25,2.777777778,5
臺北市私立友丞幼兒園,私立,臺北市,中山區,臺北市中山區錦州街452號1、2樓,121.5435437,25.0600949,40,102學年度,追蹤評鑑,全數指標通過追蹤評鑑,7,20,2.857142857,3
臺北市私立韋斯登幼兒園,私立,臺北市,中山區,臺北市中山區合江街73巷33號1樓,121.5403032,25.0588327,24,105學年度,基礎評鑑,全數指標通過基礎評鑑,37,167,4.513513514,5
臺北市私立龍江幼兒園,私立,臺北市,中山區,臺北市中山區龍江路397巷12號1樓,121.541689,25.065477,20,105學年度,基礎評鑑,全數指標通過基礎評鑑,29,90,3.103448276,4.7
臺北市私立晨星蒙特梭利幼兒園,私立,臺北市,中山區,臺北市中山區龍江路114巷6號1樓,121.540048,25.0530409,32,107學年度,基礎評鑑,全數指標通過基礎評鑑,40,200,5,4
臺北市私立喬幼國際幼兒園,私立,臺北市,中山區,臺北市中山區民權東路三段63、65、67號2樓至3樓,121.543362,25.062583,99,107學年度,基礎評鑑,全數指標通過基礎評鑑,26,130,5,4.8
臺北市私立道明幼兒園,私立,臺北市,中山區,臺北市中山區吉林路378號1、2樓,121.5300009,25.0646298,310,102學年度,基礎評鑑,全數指標通過基礎評鑑,20,56,2.8,3.1
臺北市私立大智幼兒園,私立,臺北市,中山區,臺北市中山區明水路397巷7弄24號1樓,121.5487137,25.0778614,40,105學年度,基礎評鑑,全數指標通過基礎評鑑,41,205,5,4.7
臺北市私立宜家蒙特梭利幼兒園,私立,臺北市,中山區,臺北市中山區龍江路271巷5號1樓,121.5465771,25.061642,28,103學年度,基礎評鑑,全數指標通過基礎評鑑,5,25,5,5
臺北市私立蒙特梭利花園幼兒園,私立,臺北市,中山區,臺北市中山區明水路397巷7弄2號及2之1號1樓,121.5478159,25.0778947,40,105學年度,基礎評鑑,全數指標通過基礎評鑑,43,198,4.604651163,4.8
臺北市私立建國幼兒園,私立,臺北市,中山區,臺北市中山區建國北路二段6巷1號1樓至4樓,121.5363241,25.0526154,119,107學年度,基礎評鑑,全數指標通過基礎評鑑,21,92,4.380952381,4.2
臺北市私立加楓國際蒙特梭利幼兒園,私立,臺北市,中山區,臺北市中山區松江路188巷9號及9之1號1樓,121.532027,25.0568328,41,102學年度,基礎評鑑,全數指標通過基礎評鑑,20,60,3,2.7
臺北市私立笙愛幼兒園,私立,臺北市,中山區,臺北市中山區松江路78巷8號1樓至2樓,121.5321785,25.0497189,35,107學年度,基礎評鑑,全數指標通過基礎評鑑,13,60,4.615384615,4.6
臺北市私立日光貝比幼兒園,私立,臺北市,中山區,臺北市中山區中山北路二段116巷9號2樓,121.5220771,25.0610215,20,107學年度,基礎評鑑,全數指標通過基礎評鑑,41,205,5,4.7
臺北市私立喬幼一江幼兒園,私立,臺北市,中山區,臺北市中山區一江街21號1樓及2樓,121.5316624,25.0527112,41,107學年度,基礎評鑑,全數指標通過基礎評鑑,37,96,2.594594595,4.4
臺北市私立蘊品幼兒園,私立,臺北市,中山區,臺北市中山區基湖路147號1樓,121.5637972,25.078089,37,無評鑑資料,無評鑑資料,無評鑑資料,34,143,4.205882353,5
台北市教保人員協會附設臺北市私立濱江非營利幼兒園,非營利,臺北市,中山區,臺北市中山區樂群二路262號,121.5611679,25.078555,106,無評鑑資料,無評鑑資料,無評鑑資料,46,225,4.891304348,4.1
臺北市松山區民權國民小學附設幼兒園,公立,臺北市,松山區,臺北市松山區民權東路四段200號1樓,121.5623038,25.0623873,212,107學年度,基礎評鑑,全數指標通過基礎評鑑,40,164,4.1,5
臺北市松山區西松國民小學附設幼兒園,公立,臺北市,松山區,臺北市松山區三民路5號1樓及2樓,121.5634876,25.0523018,256,107學年度,基礎評鑑,全數指標通過基礎評鑑,19,57,3,5
臺北市松山區松山國民小學附設幼兒園,公立,臺北市,松山區,臺北市松山區八德路四段746號1樓,121.5789376,25.0512297,166,107學年度,基礎評鑑,全數指標通過基礎評鑑,29,70,2.413793103,5
臺北市松山區民族國民小學附設幼兒園,公立,臺北市,松山區,臺北市松山區民生東路四段97巷7號1樓,121.5517982,25.0594953,180,107學年度,基礎評鑑,全數指標通過基礎評鑑,8,38,4.75,4.3
臺北市松山區健康國民小學附設幼兒園,公立,臺北市,松山區,臺北市松山區延壽街168號1樓,121.5627846,25.0566674,90,107學年度,基礎評鑑,全數指標通過基礎評鑑,38,175,4.605263158,4.8
臺北市松山區三民國民小學附設幼兒園,公立,臺北市,松山區,臺北市松山區民權東路五段1號1樓,121.5642866,25.0632227,120,107學年度,基礎評鑑,全數指標通過基礎評鑑,32,122,3.8125,4.9
臺北市立松山幼兒園,公立,臺北市,松山區,臺北市松山區敦化北路199巷5號2樓,121.5515189,25.0571815,180,107學年度,基礎評鑑,全數指標通過基礎評鑑,41,180,4.390243902,5
臺北市松山區敦化國民小學附設幼兒園,公立,臺北市,松山區,臺北市松山區敦化北路2號1樓,121.5481039,25.0491523,120,107學年度,基礎評鑑,全數指標通過基礎評鑑,47,174,3.70212766,3.7
臺北市私立青林幼兒園,私立,臺北市,松山區,臺北市松山區敦化南路一段80巷20號1樓,121.547878,25.046603,26,107學年度,基礎評鑑,全數指標通過基礎評鑑,49,225,4.591836735,4.2
臺北市私立凱思寶幼兒園,私立,臺北市,松山區,臺北市松山區光復北路100巷8號3樓,121.557302,25.050444,33,105學年度,基礎評鑑,全數指標通過基礎評鑑,43,159,3.697674419,4.3
臺北市私立凱思幼兒園,私立,臺北市,松山區,臺北市松山區光復北路100巷8號2樓,121.557302,25.050444,31,103學年度,基礎評鑑,全數指標通過基礎評鑑,40,92,2.3,4.9
臺北市私立德馨幼兒園,私立,臺北市,松山區,臺北市松山區八德路三段12巷20弄18號1樓,121.549812,25.046655,23,102學年度,追蹤評鑑,全數指標通過追蹤評鑑,42,189,4.5,4.8
臺北市私立三民幼兒園,私立,臺北市,松山區,臺北市松山區民生東路五段69巷2弄37,121.5603449,25.059448,180,105學年度,基礎評鑑,全數指標通過基礎評鑑,3,12,4,5
臺北市私立親子坊幼兒園,私立,臺北市,松山區,臺北市松山區健康路325巷16號1樓,121.5672699,25.0559067,25,107學年度,基礎評鑑,全數指標通過基礎評鑑,16,51,3.1875,4
財團法人福智文教基金會附設臺北市私立妙慧幼兒園,私立,臺北市,松山區,臺北市松山區南京東路4段133巷5弄25號1至2樓,121.556072,25.0521,40,104學年度,追蹤評鑑,全數指標通過追蹤評鑑,35,130,3.714285714,3.6
財團法人福智文教基金會附設臺北市私立妙行幼兒園,私立,臺北市,松山區,臺北市松山區南京東路4段133巷5弄23號1樓,121.5559743,25.0520902,34,103學年度,基礎評鑑,全數指標通過基礎評鑑,40,200,5,3.3
臺北市立敦化國民中學教師會附設臺北市私立員工子女幼兒園,私立,臺北市,松山區,臺北市松山區南京東路3段300號2樓,121.546707,25.051541,32,105學年度,基礎評鑑,全數指標通過基礎評鑑,41,135,3.292682927,4.2
臺北市私立卡兒堡幼兒園,私立,臺北市,松山區,臺北市松山區八德路三段12巷57弄39,121.5522043,25.045406,50,104學年度,基礎評鑑,全數指標通過基礎評鑑,20,50,2.5,3
臺北市私立天喜幼兒園,私立,臺北市,松山區,臺北市松山區民權東路五段102號1、2樓、民權東路五段104巷2號1、2樓,121.5677244,25.0632149,70,103學年度,基礎評鑑,全數指標通過基礎評鑑,14,55,3.928571429,5
臺北市私立嘉勝幼兒園,私立,臺北市,松山區,臺北市松山區三民路9-17、9-18、9-19、9-20號1樓,121.56372,25.053852,30,103學年度,基礎評鑑,全數指標通過基礎評鑑,19,27,1.421052632,4.3
臺北市私立嘉維幼兒園,私立,臺北市,松山區,臺北市松山區三民路9-21、9-22、9-23、9-24號1樓,121.563709,25.0536322,32,102學年度,追蹤評鑑,全數指標通過追蹤評鑑,35,175,5,5
臺北市私立喜樂幼兒園,私立,臺北市,松山區,臺北市松山區健康路290之1號1樓,121.565358,25.054053,40,102學年度,基礎評鑑,全數指標通過基礎評鑑,8,30,3.75,3.8
臺北市私立勁寶兒民權幼兒園,私立,臺北市,松山區,臺北市松山區民權東路三段106巷21弄12號1樓,121.5453061,25.0596046,36,102學年度,基礎評鑑,全數指標通過基礎評鑑,49,127,2.591836735,4.5
臺北市私立優寶幼兒園,私立,臺北市,松山區,臺北市松山區南京東路四段133巷6弄2號1、2樓,121.5550057,25.0527563,120,104學年度,追蹤評鑑,全數指標通過追蹤評鑑,40,176,4.4,3.9
臺北市私立郁欣幼兒園,私立,臺北市,松山區,臺北市松山區八德路三段106巷70號,121.554062,25.0460979,60,107學年度,基礎評鑑,部分指標通過基礎評鑑,16,35,2.1875,5
臺北市私立維多利亞幼兒園,私立,臺北市,松山區,臺北市松山區民權東路3段160巷19弄17號1樓,121.5481871,25.0600909,120,107學年度,基礎評鑑,全數指標通過基礎評鑑,11,34,3.090909091,5
臺北市私立民權幼兒園,私立,臺北市,松山區,臺北市松山區富錦街562巷13號1樓,121.5675669,25.0621719,83,103學年度,基礎評鑑,全數指標通過基礎評鑑,9,45,5,4.2
財團法人臺北市私立立德幼兒園,私立,臺北市,松山區,臺北市松山區南京東路5段123巷8弄47號1樓,121.5631053,25.0539587,270,104學年度,基礎評鑑,全數指標通過基礎評鑑,18,36,2,5
臺北市私立育華幼兒園,私立,臺北市,松山區,臺北市松山區八德路3段12巷51弄44之2號1樓,121.5521439,25.045876,30,107學年度,基礎評鑑,部分指標通過基礎評鑑,13,21,1.615384615,3.9
臺北市私立小親親幼兒園,私立,臺北市,松山區,臺北市松山區民生東路4段80巷15弄3號1樓,121.5532393,25.0563292,30,105學年度,基礎評鑑,全數指標通過基礎評鑑,16,80,5,3.7
臺北市私立宜家民權蒙特梭利幼兒園,私立,臺北市,松山區,臺北市松山區民權東路3段140巷4號1樓,121.5465771,25.061642,58,103學年度,基礎評鑑,全數指標通過基礎評鑑,45,99,2.2,3.3
臺北市私立松迪幼兒園,私立,臺北市,松山區,臺北市松山區東興路2巷10號1樓,121.5648343,25.0507866,21,107學年度,基礎評鑑,部分指標通過基礎評鑑,29,107,3.689655172,5
臺北市私立資幼幼兒園,私立,臺北市,松山區,臺北市松山區富錦街372號1樓,121.55872,25.060412,34,107學年度,基礎評鑑,全數指標通過基礎評鑑,27,119,4.407407407,5
財團法人臺灣省臺南市天主教鮑思高慈幼會附設臺北市私立思高幼兒園,私立,臺北市,松山區,臺北市松山區民生東路三段125號1樓,121.5473879,25.0580799,180,105學年度,基礎評鑑,全數指標通過基礎評鑑,16,74,4.625,5
臺北市私立育達高級商業家事職業學校附設臺北市私立點點幼兒園,私立,臺北市,松山區,臺北市松山區南京東路四段120巷31號1樓,121.5551529,25.0501709,210,104學年度,基礎評鑑,全數指標通過基礎評鑑,23,115,5,5
臺北市私立馨兒園幼兒園,私立,臺北市,松山區,臺北市松山區八德路三段12巷60號1樓,121.5506056,25.0459031,40,104學年度,基礎評鑑,全數指標通過基礎評鑑,44,220,5,4
臺北市私立正欣幼兒園,私立,臺北市,松山區,臺北市松山區光復北路165巷5號、7號1樓,121.5557684,25.0574138,120,105學年度,基礎評鑑,全數指標通過基礎評鑑,36,101,2.805555556,4.1
臺北市私立光華幼兒園,私立,臺北市,松山區,臺北市松山區慶城街16巷3、5號1樓,121.54593,25.053299,150,104學年度,基礎評鑑,全數指標通過基礎評鑑,42,122,2.904761905,4
臺北市私立童欣幼兒園,私立,臺北市,松山區,臺北市松山區富錦街396號、398號1樓,121.559818,25.060497,60,107學年度,基礎評鑑,全數指標通過基礎評鑑,27,130,4.814814815,5
臺北市私立民族幼兒園,私立,臺北市,松山區,臺北市松山區新中街4巷6、8號1樓,121.5610849,25.0575209,60,107學年度,基礎評鑑,全數指標通過基礎評鑑,38,118,3.105263158,4.8
臺北市私立多多優質幼兒園,私立,臺北市,松山區,臺北市松山區光復南路46巷25,121.5560364,25.0460683,75,102學年度,追蹤評鑑,全數指標通過追蹤評鑑,38,133,3.5,4
臺北市私立小慶園幼兒園,私立,臺北市,松山區,臺北市松山區慶城街16巷9-1號1樓,121.546096,25.053749,30,107學年度,基礎評鑑,全數指標通過基礎評鑑,12,34,2.833333333,5
臺北市私立小敦園幼兒園,私立,臺北市,松山區,臺北市松山區敦化北路145巷55號1樓,121.551534,25.053642,19,107學年度,基礎評鑑,全數指標通過基礎評鑑,47,155,3.29787234,4.4
臺北市私立正欣蒙幼兒園,私立,臺北市,松山區,臺北市松山區光復北路165巷3號1樓,121.5557684,25.0574138,27,103學年度,基礎評鑑,全數指標通過基礎評鑑,2,5,2.5,4.2
臺北市私立賀瑞幼兒園,私立,臺北市,松山區,臺北市松山區南京東路四段53巷11弄1號及3號1樓,121.5510149,25.0532641,64,105學年度,基礎評鑑,全數指標通過基礎評鑑,24,77,3.208333333,4.3
臺北市私立哈寶寶幼兒園,私立,臺北市,松山區,臺北市松山區民生東路五段69巷2弄13號及15號1樓,121.6632085,25.0735109,40,105學年度,基礎評鑑,全數指標通過基礎評鑑,32,150,4.6875,4
臺北市私立格爾幼兒園,私立,臺北市,松山區,臺北市松山區八德路二段402號1至2樓,121.5466737,25.0480367,96,103學年度,基礎評鑑,全數指標通過基礎評鑑,18,90,5,4.1
臺北市私立豐村幼兒園,私立,臺北市,松山區,臺北市松山區八德路四段106巷2弄4號1樓,121.560806,25.0480799,29,102學年度,追蹤評鑑,全數指標通過追蹤評鑑,47,89,1.893617021,5
臺北市私立聖如幼兒園,私立,臺北市,松山區,臺北市松山區復興北路361巷26號1樓,121.5462658,25.0603424,34,103學年度,基礎評鑑,全數指標通過基礎評鑑,4,11,2.75,4.1
臺北市私立聖儒幼兒園,私立,臺北市,松山區,臺北市松山區復興北路361巷24號1樓,121.5462658,25.0603424,33,104學年度,基礎評鑑,全數指標通過基礎評鑑,2,9,4.5,5
臺北市私立友友幼兒園,私立,臺北市,松山區,臺北市松山區南京東路五段23巷6弄9號及11號1樓,121.5583745,25.0522284,50,107學年度,基礎評鑑,全數指標通過基礎評鑑,47,179,3.808510638,4.5
臺北市私立純青幼兒園,私立,臺北市,松山區,臺北市松山區光復北路190巷35號1樓,121.554309,25.054706,95,107學年度,基礎評鑑,全數指標通過基礎評鑑,11,44,4,4.3
臺北市私立寶仁幼兒園,私立,臺北市,松山區,臺北市松山區光復北路230巷1號1樓,121.5552,25.055985,55,103學年度,基礎評鑑,全數指標通過基礎評鑑,14,32,2.285714286,3.7
臺北市私立健寶兒幼兒園,私立,臺北市,松山區,臺北市松山區敦化北路222巷11之1、13號1樓,121.5481172,25.0594267,48,107學年度,基礎評鑑,全數指標通過基礎評鑑,20,56,2.8,5
臺北市私立耕心幼兒園,私立,臺北市,松山區,臺北市松山區南京東路四段53巷11弄2號1樓至2樓,121.5510601,25.0534132,40,105學年度,基礎評鑑,全數指標通過基礎評鑑,35,154,4.4,4.7
臺北市私立圓圓幼兒園,私立,臺北市,松山區,臺北市松山區慶城街20號1樓,121.545607,25.0534,240,102學年度,基礎評鑑,全數指標通過基礎評鑑,8,40,5,4.3
臺北市經國三民非營利幼兒園,非營利,臺北市,松山區,臺北市松山區民生東路5段163-1號2樓,121.5627524,25.0592446,210,102學年度,基礎評鑑,全數指標通過基礎評鑑,16,37,2.3125,4.5
臺北市大安區龍安國民小學附設幼兒園,公立,臺北市,大安區,臺北市大安區新生南路三段33號1樓至3樓,121.5349274,25.0239196,180,105學年度,基礎評鑑,全數指標通過基礎評鑑,40,120,3,4
臺北市大安區建安國民小學附設幼兒園,公立,臺北市,大安區,臺北市大安區大安路二段99號,121.546212,25.0293537,150,105學年度,基礎評鑑,全數指標通過基礎評鑑,5,16,3.2,5
臺北市大安區仁愛國民小學附設幼兒園,公立,臺北市,大安區,臺北市大安區安和路一段60號1樓,121.5521443,25.0358446,120,105學年度,基礎評鑑,全數指標通過基礎評鑑,8,24,3,3.9
臺北市大安區古亭國民小學附設幼兒園,公立,臺北市,大安區,臺北市大安區羅斯福路三段201號,121.5287608,25.0205994,120,105學年度,基礎評鑑,全數指標通過基礎評鑑,46,221,4.804347826,4
臺北市大安區銘傳國民小學附設幼兒園,公立,臺北市,大安區,臺北市大安區羅斯褔路四段21號,121.535395,25.014044,60,105學年度,基礎評鑑,全數指標通過基礎評鑑,14,49,3.5,3.9
臺北市大安區公館國民小學附設幼兒園,公立,臺北市,大安區,臺北市大安區基隆路四段41巷68弄2號1樓至2樓,121.542917,25.012419,90,105學年度,基礎評鑑,全數指標通過基礎評鑑,34,122,3.588235294,4
臺北市大安區大安國民小學附設幼兒園,公立,臺北市,大安區,臺北市大安區臥龍街129號1至2樓,121.5503468,25.018933,210,105學年度,基礎評鑑,全數指標通過基礎評鑑,5,18,3.6,5
臺北市大安區新生國民小學附設幼兒園,公立,臺北市,大安區,臺北市大安區新生南路二段36號,121.5332977,25.0296774,120,105學年度,基礎評鑑,全數指標通過基礎評鑑,26,112,4.307692308,5
臺北市大安區幸安國民小學附設幼兒園,公立,臺北市,大安區,臺北市大安區仁愛路三段22號,121.5349516,25.0376279,196,105學年度,基礎評鑑,全數指標通過基礎評鑑,43,215,5,5
國立臺北教育大學附設實驗國民小學附設幼兒園,公立,臺北市,大安區,臺北市大安區和平東路二段94號,121.5409461,25.0250425,120,105學年度,基礎評鑑,全數指標通過基礎評鑑,11,35,3.181818182,5
臺北市立大安幼兒園,公立,臺北市,大安區,臺北市大安區四維路198巷31弄11號,121.5461948,25.0274483,210,105學年度,基礎評鑑,全數指標通過基礎評鑑,19,57,3,5
臺北市和平實驗國民小學附設幼兒園,公立,臺北市,大安區,臺北市大安區敦南街76巷28號,121.5466682,25.0207072,60,無評鑑資料,無評鑑資料,無評鑑資料,35,175,5,5
臺北市私立愛英幼兒園,私立,臺北市,大安區,臺北市大安區金山南路二段159巷3號,121.5268137,25.0292291,60,102學年度,追蹤評鑑,全數指標通過追蹤評鑑,38,190,5,5
財團法人天主教會台北教區附設臺北市私立信光幼兒園,私立,臺北市,大安區,臺北市大安區通化街178號1、2、3樓,121.553273,25.027476,210,104學年度,基礎評鑑,全數指標通過基礎評鑑,33,145,4.393939394,3.7
財團法人臺灣大學校園建設基金會附設臺北市私立幼兒園,私立,臺北市,大安區,臺北市大安區基隆路四段144巷59弄12號1樓,121.537046,25.0141097,120,107學年度,基礎評鑑,部分指標通過基礎評鑑,25,63,2.52,3.9
財團法人台北市基督教浸信會懷恩堂附設臺北市私立懷恩幼兒園,私立,臺北市,大安區,臺北市大安區新生南路3段90號1樓,121.533181,25.017755,150,103學年度,基礎評鑑,全數指標通過基礎評鑑,38,91,2.394736842,5
臺北市私立童年空間幼兒園,私立,臺北市,大安區,臺北市大安區信義路四段265巷20弄18號1樓,121.5542355,25.0351045,24,105學年度,基礎評鑑,全數指標通過基礎評鑑,40,196,4.9,4.2
臺北市私立陽光寶貝幼兒園,私立,臺北市,大安區,臺北市大安區新生南路1段133巷9號1、2樓,121.5337591,25.0374428,90,104學年度,基礎評鑑,全數指標通過基礎評鑑,2,9,4.5,3.5
財團法人臺北市私立蒙特梭利幼兒園,私立,臺北市,大安區,臺北市大安區新生南路1段103巷27號1樓、2樓,121.5353529,25.0407664,150,103學年度,基礎評鑑,全數指標通過基礎評鑑,16,61,3.8125,5
臺北市私立格林菲爾幼兒園,私立,臺北市,大安區,臺北市大安區安和路二段181巷2、4、6號1樓及4號2樓之1、2樓之2與189巷5號1樓,121.550449,25.0270259,152,107學年度,基礎評鑑,全數指標通過基礎評鑑,35,165,4.714285714,4
臺北市私立童馨幼兒園,私立,臺北市,大安區,臺北市大安區樂業街182號2樓及184號2樓,121.554023,25.019087,50,107學年度,基礎評鑑,全數指標通過基礎評鑑,30,123,4.1,4.2
臺北市私立娃娃家蒙特梭利幼兒園,私立,臺北市,大安區,臺北市大安區信義路四段61號1樓,121.5454959,25.0335578,58,102學年度,基礎評鑑,全數指標通過基礎評鑑,11,55,5,5
臺北市私立橘子樹幼兒園,私立,臺北市,大安區,臺北市大安區瑞安街208巷2號及4號1樓,121.540453,25.028054,40,105學年度,基礎評鑑,全數指標通過基礎評鑑,38,80,2.105263158,4.8
臺北市私立勁寶兒幼兒園,私立,臺北市,大安區,臺北市大安區復興南路一段92之8號1樓及76號2樓之3,121.5432766,25.0438619,51,102學年度,基礎評鑑,全數指標通過基礎評鑑,30,132,4.4,4.4
臺北市私立信宜幼兒園,私立,臺北市,大安區,臺北市大安區安和路一段102巷17號1樓,121.5509098,25.0344177,35,104學年度,追蹤評鑑,全數指標通過追蹤評鑑,50,140,2.8,4.4
臺北市私立幼苗幼兒園,私立,臺北市,大安區,臺北市大安區安和路一段127巷13號、15、19號1樓,121.5532318,25.0347072,66,104學年度,基礎評鑑,全數指標通過基礎評鑑,12,58,4.833333333,4.2
臺北市私立邦尼幼兒園,私立,臺北市,大安區,臺北市大安區和平東路一段248巷18號1樓及雲和街111號1樓,121.532473,25.023369,28,105學年度,追蹤評鑑,全數指標通過追蹤評鑑,49,206,4.204081633,4.2
臺北市私立心聲幼兒園,私立,臺北市,大安區,臺北市大安區新生南路三段22巷14號1樓,121.533493,25.023988,25,105學年度,基礎評鑑,全數指標通過基礎評鑑,11,52,4.727272727,4.1
臺北市私立真心蒙特梭利幼兒園,私立,臺北市,大安區,臺北市大安區安和路1段112巷20號1樓,121.5507211,25.0338315,28,107學年度,基礎評鑑,全數指標通過基礎評鑑,30,108,3.6,5
臺北市私立巧琪幼兒園,私立,臺北市,大安區,臺北市大安區信義路四段265巷31弄26號1樓,121.555989,25.033935,28,107學年度,基礎評鑑,全數指標通過基礎評鑑,7,30,4.285714286,4
臺北市私立長青幼兒園,私立,臺北市,大安區,臺北市大安區基隆路二段232號2樓,121.5509608,25.0232425,65,103學年度,基礎評鑑,全數指標通過基礎評鑑,24,120,5,3
臺北市私立卡朵蒙特梭利幼兒園,私立,臺北市,大安區,臺北市大安區四維路192巷12號1樓,121.5471206,25.0272434,30,104學年度,基礎評鑑,全數指標通過基礎評鑑,5,23,4.6,4.1
臺北市私立何嘉仁延吉幼兒園,私立,臺北市,大安區,臺北市大安區延吉街250號2樓,121.555992,25.034887,346,107學年度,基礎評鑑,部分指標通過基礎評鑑,25,93,3.72,5
臺北市私立新生寶貝幼兒園,私立,臺北市,大安區,臺北市大安區信義路2段230號2樓,121.5319272,25.0333844,220,107學年度,基礎評鑑,全數指標通過基礎評鑑,27,135,5,5
臺北市私立上學趣蒙特梭利幼兒園,私立,臺北市,大安區,臺北市大安區忠孝東路3段251巷9弄 8、10號1樓,121.5420346,25.0432091,30,102學年度,追蹤評鑑,全數指標通過追蹤評鑑,9,27,3,4.8
臺北市私立仁和幼兒園,私立,臺北市,大安區,臺北市大安區忠孝東路三段251巷9弄8號,121.5418912,25.0432203,60,103學年度,基礎評鑑,全數指標通過基礎評鑑,16,62,3.875,4.6
財團法人台北市中華基督教衛理公會衛理堂附設台北市私立衛理幼兒園,私立,臺北市,大安區,臺北市大安區新生南路一段113號1樓、117號1樓,121.533043,25.039744,195,104學年度,基礎評鑑,全數指標通過基礎評鑑,15,63,4.2,4.5
臺北市私立育樂幼兒園,私立,臺北市,大安區,臺北市大安區和平東路三段308巷40、42號1樓,121.555367,25.0196251,90,105學年度,基礎評鑑,全數指標通過基礎評鑑,16,58,3.625,5
財團法人臺北市私立立人國際國民中小學附設臺北市私立幼兒園,私立,臺北市,大安區,臺北市大安區安和路二段99號,121.5519283,25.0298352,240,104學年度,基礎評鑑,全數指標通過基礎評鑑,45,212,4.711111111,3.9
臺北市私立佳安幼兒園,私立,臺北市,大安區,臺北市大安區樂業街131、133號1樓,121.5531149,25.020089,60,103學年度,基礎評鑑,全數指標通過基礎評鑑,27,105,3.888888889,5
臺北市私立信望愛幼兒園,私立,臺北市,大安區,臺北市大安區敦化南路二段172巷3號1樓,121.548069,25.0240599,30,104學年度,基礎評鑑,全數指標通過基礎評鑑,16,66,4.125,3.9
臺北市私立四維幼兒園,私立,臺北市,大安區,臺北市大安區和平東路三段1巷25號,121.5468229,25.0257016,120,103學年度,基礎評鑑,全數指標通過基礎評鑑,13,21,1.615384615,5
臺北市私立寶血幼兒園,私立,臺北市,大安區,臺北市大安區泰順街60巷18弄8號1樓、2樓及13號1樓,121.5298052,25.0220122,210,107學年度,基礎評鑑,全數指標通過基礎評鑑,39,152,3.897435897,4.2
財團法人台灣聖公會附設臺北市私立聖約翰幼兒園,私立,臺北市,大安區,臺北市大安區復興南路二段280號,121.5431786,25.0244597,90,107學年度,基礎評鑑,全數指標通過基礎評鑑,23,108,4.695652174,5
財團法人天主教會台北教區附設臺北市私立曉星幼兒園,私立,臺北市,大安區,臺北市大安區延吉街254號1樓,121.556222,25.0344865,90,104學年度,基礎評鑑,全數指標通過基礎評鑑,48,211,4.395833333,5
財團法人臺北市私立金甌女子高級中學附設臺北市私立幼兒園,私立,臺北市,大安區,臺北市大安區杭州南路二段1號1樓,121.5241819,25.034768,90,103學年度,基礎評鑑,全數指標通過基礎評鑑,2,9,4.5,5
臺北市私立惠真幼兒園,私立,臺北市,大安區,臺北市大安區通化街143巷31號1樓至2樓,121.555828,25.028513,120,103學年度,基礎評鑑,全數指標通過基礎評鑑,17,37,2.176470588,4.8
財團法人臺北市私立復興實驗高級中學附設臺北市私立幼兒園,私立,臺北市,大安區,臺北市大安區敦化南路一段262號1樓,121.5484403,25.0394418,300,107學年度,基礎評鑑,全數指標通過基礎評鑑,13,51,3.923076923,4
新民學校財團法人附設臺北市私立幼兒園,私立,臺北市,大安區,臺北市大安區辛亥路一段113號1樓,121.5316611,25.0222236,90,105學年度,基礎評鑑,全數指標通過基礎評鑑,4,10,2.5,4.3
臺北市私立菁英幼兒園,私立,臺北市,大安區,臺北市大安區新生南路一段119巷15號1樓,121.5345569,25.0393917,30,107學年度,基礎評鑑,全數指標通過基礎評鑑,49,245,5,5
臺北市私立上群蒙特梭利幼兒園,私立,臺北市,大安區,臺北市大安區仁愛路3段123巷5號及3弄1號1樓,121.5420798,25.0388085,50,104學年度,基礎評鑑,全數指標通過基礎評鑑,15,69,4.6,1
臺北市私立安和寶貝幼兒園,私立,臺北市,大安區,臺北市大安區安和路一段78巷1、1之1號及1號共用部分,121.552227,25.0350839,38,107學年度,基礎評鑑,全數指標通過基礎評鑑,30,150,5,4
臺北市私立巧而園幼兒園,私立,臺北市,大安區,臺北市大安區樂利路45巷6號第1、2層,121.5521279,25.0266727,52,102學年度,基礎評鑑,全數指標通過基礎評鑑,7,20,2.857142857,3.7
臺北市私立小天心幼兒園,私立,臺北市,大安區,臺北市大安區潮州街57號1樓,121.5241425,25.029358,25,無評鑑資料,無評鑑資料,無評鑑資料,6,30,5,5
臺北市私立恩寶園幼兒園,私立,臺北市,大安區,臺北市大安區新生南路一段143巷20號及22號1樓,121.5344374,25.0360945,40,無評鑑資料,無評鑑資料,無評鑑資料,2,10,5,4
臺北市私立桔子蒙特梭利幼兒園,私立,臺北市,大安區,臺北市大安區仁愛路三段51巷8號1樓,121.535821,25.0397521,26,107學年度,基礎評鑑,部分指標通過基礎評鑑,13,47,3.615384615,4
臺北市私立人安幼兒園,私立,臺北市,大安區,臺北市大安區四維路154巷19號1樓,121.547078,25.031055,24,107學年度,基礎評鑑,部分指標通過基礎評鑑,39,160,4.102564103,4.4
臺北市私立蔚思幼兒園,私立,臺北市,大安區,臺北市大安區安和路二段217巷22、24、26號1、2樓,121.550946,25.025915,40,107學年度,基礎評鑑,全數指標通過基礎評鑑,44,180,4.090909091,5
臺北市私立磊心信義幼兒園,私立,臺北市,大安區,臺北市大安區四維路76巷17號1樓,121.5466014,25.0344816,28,103學年度,基礎評鑑,全數指標通過基礎評鑑,2,10,5,5
臺北市私立長青蒙特梭利幼兒園,私立,臺北市,大安區,臺北市大安區基隆路二段232號3樓,121.5509608,25.0232425,65,102學年度,基礎評鑑,全數指標通過基礎評鑑,36,40,1.111111111,5
臺北市私立爾雅幼兒園,私立,臺北市,大安區,臺北市大安區大安路二段160巷20號1樓,121.5454494,25.0287253,24,107學年度,基礎評鑑,全數指標通過基礎評鑑,41,135,3.292682927,4
臺北市私立及愛菁英幼兒園,私立,臺北市,大安區,臺北市大安區辛亥路一段79號2樓之1,121.5305319,25.0213428,32,107學年度,基礎評鑑,全數指標通過基礎評鑑,37,122,3.297297297,2.6
臺北市私立三愛幼兒園,私立,臺北市,大安區,臺北市大安區溫州街48巷15號1樓,121.532338,25.021581,30,103學年度,基礎評鑑,全數指標通過基礎評鑑,32,160,5,4
臺北市私立光目華德福幼兒園,私立,臺北市,大安區,臺北市大安區延吉街241巷2弄11號1、2樓,121.5559973,25.0356556,90,104學年度,基礎評鑑,全數指標通過基礎評鑑,37,111,3,5
臺北市私立禾心蒙特梭利幼兒園,私立,臺北市,大安區,臺北市大安區安和路一段135巷16號1樓,121.5534971,25.0341727,25,103學年度,基礎評鑑,全數指標通過基礎評鑑,46,230,5,5
臺北市私立華菂幼兒園,私立,臺北市,大安區,臺北市大安區安和路二段217巷30、32號1樓,121.551188,25.025967,90,107學年度,基礎評鑑,全數指標通過基礎評鑑,32,106,3.3125,4.6
臺北市私立上愛幼兒園,私立,臺北市,大安區,臺北市大安區溫州街52巷14號1樓,121.5321701,25.0209109,23,104學年度,基礎評鑑,全數指標通過基礎評鑑,34,136,4,4.9
臺北市私立格登幼兒園,私立,臺北市,大安區,臺北市大安區仁愛路三段26之1號1樓、26之2號1樓及26號2樓之1,121.5359511,25.0376294,64,107學年度,基礎評鑑,全數指標通過基礎評鑑,33,139,4.212121212,5
臺北市私立經緯幼兒園,私立,臺北市,大安區,臺北市大安區復興南路二段160巷16號1樓,121.5422903,25.0277664,31,107學年度,基礎評鑑,全數指標通過基礎評鑑,13,64,4.923076923,3
臺北市私立貓熊幼兒園,私立,臺北市,大安區,臺北市大安區建國南路二段79巷33號1樓及69巷26號1樓、2樓、2樓之1及28號2樓,121.5392904,25.0309435,180,102學年度,基礎評鑑,全數指標通過基礎評鑑,15,59,3.933333333,4.7
有限責任臺北市立金華國民中學員生消費合作社附設臺北市私立員工子女幼兒園,私立,臺北市,大安區,臺北市大安區新生南路二段32號1樓(南新樓1樓),121.533178,25.0312012,40,107學年度,基礎評鑑,部分指標通過基礎評鑑,13,52,4,4.5
臺北市私立家森幼兒園,私立,臺北市,大安區,臺北市大安區羅斯福路二段101巷19號1樓,121.525545,25.0248176,28,104學年度,追蹤評鑑,全數指標通過追蹤評鑑,21,95,4.523809524,5
社團法人台北市兒童托育協會附設臺北市私立安東幼兒園,私立,臺北市,大安區,臺北市大安區瑞安街75號2樓,121.541166,25.0282867,280,107學年度,基礎評鑑,全數指標通過基礎評鑑,42,139,3.30952381,4.3
財團法人中國文化大學附設臺北市私立文化幼兒園,私立,臺北市,大安區,臺北市大安區瑞安街256巷18號及20號1樓,121.5387289,25.0273004,56,107學年度,基礎評鑑,全數指標通過基礎評鑑,28,101,3.607142857,5
臺北市私立英羽幼兒園,私立,臺北市,大安區,臺北市大安區復興南路二段111巷17弄7號1樓,121.5449831,25.0292766,23,105學年度,基礎評鑑,全數指標通過基礎評鑑,46,170,3.695652174,5
臺北市私立巧可麗國際幼兒園,私立,臺北市,大安區,臺北市大安區泰順街45號2樓,121.5312946,25.0226946,114,103學年度,基礎評鑑,全數指標通過基礎評鑑,30,132,4.4,4.7
臺北市私立亞瑟王皇家幼兒園,私立,臺北市,大安區,臺北市大安區潮州街108號2樓,121.5260022,25.0288228,39,102學年度,基礎評鑑,全數指標通過基礎評鑑,30,123,4.1,3.5
臺北市私立敦歆幼兒園,私立,臺北市,大安區,臺北市大安區忠孝東路三段217巷2弄8號1樓,121.5401346,25.0422408,38,102學年度,基礎評鑑,全數指標通過基礎評鑑,38,72,1.894736842,3.2
臺北市私立大成幼兒園,私立,臺北市,大安區,臺北市大安區雲和街8號1樓,121.527669,25.023621,28,102學年度,基礎評鑑,全數指標通過基礎評鑑,50,245,4.9,4.5
臺北市私立丘山幼兒園,私立,臺北市,大安區,臺北市大安區忠孝東路三段10巷8號1樓,121.5334444,25.041699,25,102學年度,基礎評鑑,全數指標通過基礎評鑑,4,11,2.75,4.2
臺北市私立蔚景幼兒園,私立,臺北市,大安區,"臺北市大安區復興南路1段313巷6號1,2樓",121.544643,25.034176,48,105學年度,基礎評鑑,全數指標通過基礎評鑑,3,14,4.666666667,4.3
臺北市私立梓園幼兒園,私立,臺北市,大安區,臺北市大安區信義路二段228巷9號1樓,121.5319334,25.0329385,28,105學年度,基礎評鑑,全數指標通過基礎評鑑,31,136,4.387096774,4.8
臺北市私立奇幻幼兒園,私立,臺北市,大安區,臺北市大安區忠孝東路三段217巷1弄7號1樓,121.53936,25.04222,38,107學年度,基礎評鑑,全數指標通過基礎評鑑,7,30,4.285714286,4.4
臺北市私立嘟嘟幼兒園,私立,臺北市,大安區,臺北市大安區光復南路96巷2之1號1樓及98之6號1樓,121.5572057,25.0440382,40,107學年度,基礎評鑑,全數指標通過基礎評鑑,25,98,3.92,4.2
臺北市私立仁愛幼兒園,私立,臺北市,大安區,臺北市大安區信義路三段147巷15弄27號1樓,121.5431355,25.03512,34,103學年度,基礎評鑑,全數指標通過基礎評鑑,42,210,5,4.2
臺北市私立熱帶魚幼兒園,私立,臺北市,大安區,臺北市大安區忠孝東路四段170巷24號1樓,121.5506355,25.0396126,40,102學年度,追蹤評鑑,全數指標通過追蹤評鑑,34,153,4.5,5
臺北市私立大瑪幼兒園,私立,臺北市,大安區,臺北市大安區和平東路二段265巷44號1樓,121.5439383,25.0271374,26,105學年度,追蹤評鑑,全數指標通過追蹤評鑑,44,154,3.5,4.4
臺北市私立心藝術幼兒園,私立,臺北市,大安區,臺北市大安區永康街14巷8號1樓,121.529128,25.0312429,33,104學年度,基礎評鑑,全數指標通過基礎評鑑,28,76,2.714285714,4.5
臺北市私立予心屋幼兒園,私立,臺北市,大安區,臺北市大安區光復南路420巷19號1樓,121.5564231,25.0363776,40,107學年度,基礎評鑑,全數指標通過基礎評鑑,37,81,2.189189189,4
臺北市私立滿兒圓幼兒園,私立,臺北市,大安區,臺北市大安區仁愛路四段300巷20弄15號1樓,121.5533564,25.0363988,38,102學年度,追蹤評鑑,全數指標通過追蹤評鑑,29,84,2.896551724,4.3
臺北市私立蒙特梭利愛兒園幼兒園,私立,臺北市,大安區,臺北市大安區新生南路一段161巷4之9號1樓,121.533719,25.034536,32,107學年度,基礎評鑑,全數指標通過基礎評鑑,46,129,2.804347826,3.7
臺北市私立伊帝馬幼兒園,私立,臺北市,大安區,臺北市大安區金山南路二段13巷17號1樓,121.5282996,25.033385,30,105學年度,基礎評鑑,全數指標通過基礎評鑑,37,133,3.594594595,4.4
臺北市私立親親幼兒園,私立,臺北市,大安區,臺北市大安區延吉街109號2樓,121.5541273,25.0430482,27,107學年度,基礎評鑑,部分指標通過基礎評鑑,40,84,2.1,4.8
臺北市私立享銘幼兒園,私立,臺北市,大安區,臺北市大安區信義路三段31巷11號1樓,121.534709,25.03543,31,102學年度,基礎評鑑,全數指標通過基礎評鑑,11,23,2.090909091,4.2
臺北市私立三暉幼兒園,私立,臺北市,大安區,臺北市大安區和平東路一段91號2樓及2樓之1、2樓之2,121.5257151,25.026939,99,104學年度,基礎評鑑,全數指標通過基礎評鑑,31,99,3.193548387,4.6
財團法人中華民國郵政職工福利委員會附設臺北市私立員工子女幼兒園,私立,臺北市,大安區,臺北市大安區愛國東路210巷9號2樓,121.5239381,25.0310299,156,102學年度,基礎評鑑,全數指標通過基礎評鑑,22,106,4.818181818,4.8
臺北市私立吉事達康博喜幼兒園,私立,臺北市,大安區,臺北市大安區臥龍街43巷5號1樓及7號1樓,121.5473133,25.0227503,40,107學年度,基礎評鑑,全數指標通過基礎評鑑,32,109,3.40625,4.2
臺北市私立華康幼兒園,私立,臺北市,大安區,臺北市大安區金華街223之5號2樓及223之9號2樓,121.5293392,25.029911,31,105學年度,基礎評鑑,全數指標通過基礎評鑑,35,175,5,3.3
臺北市私立磊心蒙特梭利幼兒園,私立,臺北市,大安區,臺北市大安區信義路四段99巷30,121.546873,25.0345666,40,107學年度,基礎評鑑,全數指標通過基礎評鑑,40,160,4,3.8
臺北市私立菁英種子幼兒園,私立,臺北市,大安區,臺北市大安區濟南路3段11號1樓,121.5342658,25.0394087,26,105學年度,基礎評鑑,全數指標通過基礎評鑑,36,140,3.888888889,4.3
臺北市私立弘人幼兒園,私立,臺北市,大安區,臺北市大安區四維路170巷3號1至2樓、5號1至2樓,121.5476323,25.0282722,68,105學年度,基礎評鑑,全數指標通過基礎評鑑,34,143,4.205882353,3.8
臺北市私立樹屋幼兒園,私立,臺北市,大安區,臺北市大安區樂利路11巷19號1樓,121.552048,25.028554,30,無評鑑資料,無評鑑資料,無評鑑資料,8,31,3.875,4.3
臺北市私立陽光小屋幼兒園,私立,臺北市,大安區,臺北市大安區瑞安街208巷14弄24號1樓,121.539234,25.028452,30,無評鑑資料,無評鑑資料,無評鑑資料,39,195,5,5
臺北市私立國際蒙特梭利大安森林幼兒園,私立,臺北市,大安區,臺北市大安區新生南路1段143巷20、22號1樓,121.5338203,25.0408247,42,無評鑑資料,無評鑑資料,無評鑑資料,40,148,3.7,5
臺北市私立正義非營利幼兒園,非營利,臺北市,大安區,臺北市大安區忠孝東路三段216巷4弄41號1樓及2樓,121.5381848,25.0411649,150,102學年度,基礎評鑑,全數指標通過基礎評鑑,50,155,3.1,4.7
社團法人中華婦幼發展協會附設臺北市私立辛亥非營利幼兒園,非營利,臺北市,大安區,臺北市大安區辛亥路三段11號1樓及2樓,121.5381774,25.0411544,147,105學年度,基礎評鑑,全數指標通過基礎評鑑,14,55,3.928571429,4
耕莘健康管理專科學校附設臺北市私立黃鸝鳥非營利幼兒園,非營利,臺北市,大安區,臺北市大安區羅斯福路四段21號,121.5355759,25.0140647,76,無評鑑資料,無評鑑資料,無評鑑資料,45,171,3.8,4.9
臺北市族中非營利幼兒園,非營利,臺北市,大安區,臺北市大安區羅斯福路4段113巷13號,121.5388738,25.0111861,106,無評鑑資料,無評鑑資料,無評鑑資料,20,90,4.5,5
臺北市懷中非營利幼兒園,非營利,臺北市,大安區,臺北市大安區忠孝東路3段248巷30號,121.518928,25.025344,196,無評鑑資料,無評鑑資料,無評鑑資料,21,48,2.285714286,3.7
臺北市新安非營利幼兒園,非營利,臺北市,大安區,臺北市大安區臥龍街129號,121.5503819,25.0189254,106,無評鑑資料,無評鑑資料,無評鑑資料,38,152,4,4.1
臺北市萬華區西門國民小學附設幼兒園,公立,臺北市,萬華區,臺北市萬華區成都路98號,121.5035849,25.0431235,166,105學年度,基礎評鑑,全數指標通過基礎評鑑,41,172,4.195121951,4
臺北市萬華區大理國民小學附設幼兒園,公立,臺北市,萬華區,臺北市萬華區艋舺大道389號,121.4930584,25.0311567,136,105學年度,基礎評鑑,全數指標通過基礎評鑑,45,153,3.4,4.8
臺北市萬華區西園國民小學附設幼兒園,公立,臺北市,萬華區,臺北市萬華區東園街73巷65號,121.4986169,25.0272171,136,105學年度,基礎評鑑,全數指標通過基礎評鑑,18,67,3.722222222,4.3
臺北市萬華區老松國民小學附設幼兒園,公立,臺北市,萬華區,臺北市萬華區桂林路64號,121.5026129,25.0380886,136,105學年度,基礎評鑑,全數指標通過基礎評鑑,26,49,1.884615385,4.4
臺北市萬華區龍山國民小學附設幼兒園,公立,臺北市,萬華區,臺北市萬華區和平西路3段235號,121.4961552,25.0356648,106,105學年度,基礎評鑑,全數指標通過基礎評鑑,40,164,4.1,4.2
臺北市立南海實驗幼兒園,公立,臺北市,萬華區,臺北市萬華區西藏路424號,121.4976887,25.0296734,330,105學年度,基礎評鑑,全數指標通過基礎評鑑,17,71,4.176470588,4.1
臺北市萬華區雙園國民小學附設幼兒園,公立,臺北市,萬華區,臺北市萬華區莒光路315號,121.4981343,25.0308536,106,105學年度,基礎評鑑,全數指標通過基礎評鑑,36,108,3,4.1
臺北市萬華區萬大國民小學附設幼兒園,公立,臺北市,萬華區,臺北市萬華區萬大路346號,121.499329,25.0229287,90,105學年度,基礎評鑑,全數指標通過基礎評鑑,37,137,3.702702703,4.4
臺北市萬華區福星國民小學附設幼兒園,公立,臺北市,萬華區,臺北市萬華區中華路一段66號,121.508879,25.0467891,150,105學年度,基礎評鑑,全數指標通過基礎評鑑,41,160,3.902439024,5
臺北市萬華區新和國民小學附設幼兒園,公立,臺北市,萬華區,臺北市萬華區西藏路125巷31號,121.5033178,25.0259789,120,105學年度,基礎評鑑,全數指標通過基礎評鑑,41,168,4.097560976,4.2
臺北市萬華區華江國民小學附設幼兒園,公立,臺北市,萬華區,臺北市萬華區環河南路2段250巷42弄2號,121.491174,25.0340688,120,105學年度,基礎評鑑,全數指標通過基礎評鑑,22,68,3.090909091,4
臺北市萬華區東園國民小學附設幼兒園,公立,臺北市,萬華區,臺北市萬華區東園街195號,121.497962,25.022978,106,105學年度,基礎評鑑,全數指標通過基礎評鑑,39,179,4.58974359,4.6
臺北市立萬華幼兒園,公立,臺北市,萬華區,臺北市萬華區梧州街36號、36號2樓之1,121.4975314,25.0373712,150,105學年度,基礎評鑑,全數指標通過基礎評鑑,2,10,5,3.7
臺北市私立寧馨苑幼兒園,私立,臺北市,萬華區,臺北市萬華區西藏路239號1樓,121.494281,25.02852,34,107學年度,基礎評鑑,部分指標通過基礎評鑑,12,32,2.666666667,5
臺北市私立何嘉仁中華幼兒園,私立,臺北市,萬華區,臺北市萬華區中華路二段666-12、666-13、668、670號1樓,121.5111277,25.0242351,92,104學年度,基礎評鑑,全數指標通過基礎評鑑,50,210,4.2,3.3
臺北市私立雪拉比幼兒園,私立,臺北市,萬華區,臺北市萬華區環河南路二段250巷1號2樓、252號2樓及254號2樓,121.491614,25.033203,52,103學年度,基礎評鑑,全數指標通過基礎評鑑,48,216,4.5,2.3
臺北市私立盈虹幼兒園,私立,臺北市,萬華區,臺北市萬華區西園路二段207號2樓及2樓之1,121.494402,25.027223,33,104學年度,基礎評鑑,全數指標通過基礎評鑑,17,41,2.411764706,5
臺北市私立寶興幼兒園,私立,臺北市,萬華區,臺北市萬華區寶興街228號1樓,121.4958107,25.0220303,54,102學年度,基礎評鑑,全數指標通過基礎評鑑,10,50,5,1
臺北市私立青年幼兒園,私立,臺北市,萬華區,臺北市萬華區國興路90-7號1樓,121.506366,25.026697,26,104學年度,追蹤評鑑,全數指標通過追蹤評鑑,6,26,4.333333333,4.5
臺北市私立幼佳幼兒園,私立,臺北市,萬華區,臺北市萬華區雙園街18巷12號、西藏路484號、484-1號、486號1樓,121.4942816,25.0291712,90,105學年度,基礎評鑑,全數指標通過基礎評鑑,26,68,2.615384615,3.9
北部台灣基督長老教會艋舺教會附設臺北市私立愛心幼兒園,私立,臺北市,萬華區,臺北市萬華區貴陽街二段94號1樓,121.5032638,25.0395869,90,105學年度,基礎評鑑,全數指標通過基礎評鑑,40,124,3.1,5
財團法人天主教光仁文教基金會附設臺北市私立育仁幼兒園,私立,臺北市,萬華區,臺北市萬華區興寧街70號,121.4995549,25.032259,150,103學年度,基礎評鑑,全數指標通過基礎評鑑,4,10,2.5,4
臺北市私立博愛幼兒園,私立,臺北市,萬華區,臺北市萬華區武成街28巷9弄2號,121.495246,25.019058,120,102學年度,追蹤評鑑,全數指標通過追蹤評鑑,15,51,3.4,4.6
臺北市私立娃娃果幼兒園,私立,臺北市,萬華區,臺北市萬華區艋舺大道184號2樓及186號1、2樓,121.5001504,25.0327372,84,104學年度,基礎評鑑,全數指標通過基礎評鑑,45,176,3.911111111,2.9
臺北市私立育光幼兒園,私立,臺北市,萬華區,臺北市萬華區德昌街185巷68號、70號1樓,121.4929738,25.0224186,90,107學年度,基礎評鑑,全數指標通過基礎評鑑,16,53,3.3125,4.5
臺北市私立德明幼兒園,私立,臺北市,萬華區,臺北市萬華區萬大路449巷28弄3號1樓,121.499328,25.02019,90,107學年度,基礎評鑑,部分指標通過基礎評鑑,33,119,3.606060606,4.8
臺北市私立光仁國民小學附設幼兒園,私立,臺北市,萬華區,臺北市萬華區萬大路423巷28弄2號,121.4998219,25.0208759,360,105學年度,基礎評鑑,全數指標通過基礎評鑑,28,140,5,4.7
臺北市私立英才幼兒園,私立,臺北市,萬華區,臺北市萬華區萬大路200號,121.500284,25.02737,90,107學年度,基礎評鑑,部分指標通過基礎評鑑,25,125,5,5
臺北市私立大理幼兒園,私立,臺北市,萬華區,臺北市萬華區雙園街67巷3弄3、4、5、7號1樓,121.4943579,25.0301934,99,107學年度,基礎評鑑,部分指標通過基礎評鑑,42,202,4.80952381,5
臺北市私立慈愛幼兒園,私立,臺北市,萬華區,臺北市萬華區寶興街140巷23號、27號1、2樓,121.493854,25.02391,60,107學年度,基礎評鑑,全數指標通過基礎評鑑,43,116,2.697674419,4.9
臺北市私立德昌幼兒園,私立,臺北市,萬華區,臺北市萬華區德昌街166號2樓,121.4958659,25.023909,25,102學年度,基礎評鑑,全數指標通過基礎評鑑,27,124,4.592592593,4.3
臺北市私立聖保羅幼兒園,私立,臺北市,萬華區,臺北市萬華區長沙街2段52號1樓、2樓,121.505904,25.0405429,49,107學年度,基礎評鑑,全數指標通過基礎評鑑,43,90,2.093023256,5
臺北市私立名人幼兒園,私立,臺北市,萬華區,臺北市萬華區西園路2段227之1號2樓,121.4938999,25.02685,29,105學年度,基礎評鑑,全數指標通過基礎評鑑,13,49,3.769230769,4.9
臺北市私立歡樂童年幼兒園,私立,臺北市,萬華區,臺北市萬華區中華路二段428之4號1樓,121.506214,25.027323,27,105學年度,追蹤評鑑,全數指標通過追蹤評鑑,13,62,4.769230769,3.8
臺北市私立小樹苗華頓幼兒園,私立,臺北市,萬華區,臺北市萬華區青年路30巷1號、30巷1之2號、30巷1之3號1樓,121.504933,25.026106,40,107學年度,基礎評鑑,全數指標通過基礎評鑑,41,205,5,4
財團法人海棠文教基金會附設臺北市私立國興非營利幼兒園,非營利,臺北市,萬華區,臺北市萬華區國興路46號1樓及2樓,121.507588,25.025259,138,104學年度,基礎評鑑,全數指標通過基礎評鑑,27,86,3.185185185,4.4
臺北市雙中非營利幼兒園,非營利,臺北市,萬華區,臺北市萬華區興義街2號,121.504971,25.03729,136,無評鑑資料,無評鑑資料,無評鑑資料,26,130,5,5
臺北市信義區光復國民小學附設幼兒園,公立,臺北市,信義區,臺北市信義區光復南路271號,121.557962,25.040623,166,105學年度,基礎評鑑,全數指標通過基礎評鑑,50,195,3.9,4.4
臺北市信義區福德國民小學附設幼兒園,公立,臺北市,信義區,臺北市信義區褔德街253號,121.586673,25.0389089,136,105學年度,基礎評鑑,全數指標通過基礎評鑑,13,65,5,5
臺北市信義區信義國民小學附設幼兒園,公立,臺北市,信義區,臺北市信義區松勤街60號,121.563181,25.031566,180,105學年度,基礎評鑑,全數指標通過基礎評鑑,8,40,5,4.1
臺北市信義區永春國民小學附設幼兒園,公立,臺北市,信義區,臺北市信義區松山路225巷48號,121.579079,25.044653,212,105學年度,基礎評鑑,全數指標通過基礎評鑑,11,41,3.727272727,4.3
臺北市信義區永吉國民小學附設幼兒園,公立,臺北市,信義區,臺北市信義區松山路287巷5號,121.5798853,25.0430088,136,105學年度,基礎評鑑,全數指標通過基礎評鑑,48,240,5,4.3
臺北市信義區博愛國民小學附設幼兒園,公立,臺北市,信義區,臺北市信義區松仁路95巷20號,121.5708752,25.0363471,90,105學年度,基礎評鑑,全數指標通過基礎評鑑,42,189,4.5,4.5
臺北市信義區吳興國民小學附設幼兒園,公立,臺北市,信義區,臺北市信義區松仁路226號,121.5687156,25.0257427,136,105學年度,基礎評鑑,全數指標通過基礎評鑑,44,158,3.590909091,4
臺北市信義區三興國民小學附設幼兒園,公立,臺北市,信義區,臺北市信義區基隆路二段99號,121.558267,25.029467,166,105學年度,基礎評鑑,全數指標通過基礎評鑑,15,75,5,4.5
臺北市信義區興雅國民小學附設幼兒園,公立,臺北市,信義區,臺北市信義區基隆路一段83巷9號,121.5696554,25.047249,166,105學年度,基礎評鑑,全數指標通過基礎評鑑,26,107,4.115384615,3.9
臺北市立信義幼兒園,公立,臺北市,信義區,臺北市信義區基隆路一段364巷20、24號,121.5590239,25.0349866,240,105學年度,基礎評鑑,全數指標通過基礎評鑑,46,202,4.391304348,4.5
臺北市私立子畝蒙特梭利幼兒園,私立,臺北市,信義區,臺北市信義區忠孝東路5段558號2樓,121.5803451,25.0420976,39,103學年度,基礎評鑑,全數指標通過基礎評鑑,35,161,4.6,4.4
臺北市私立傑生幼兒園,私立,臺北市,信義區,臺北市信義區忠孝東路五段295巷6弄21,121.5736397,25.0418997,40,107學年度,基礎評鑑,部分指標通過基礎評鑑,27,70,2.592592593,4.4
臺北市私立聖幼幼兒園,私立,臺北市,信義區,臺北市信義區虎林街232巷54號1樓,121.576066,25.036009,30,104學年度,基礎評鑑,全數指標通過基礎評鑑,15,68,4.533333333,4.6
臺北市私立喬伊幼兒園,私立,臺北市,信義區,臺北市信義區忠孝東路五段524巷3弄27號1樓,121.5807334,25.0413851,28,102學年度,追蹤評鑑,全數指標通過追蹤評鑑,41,164,4,5
臺北市私立何嘉仁信安寶貝幼兒園,私立,臺北市,信義區,臺北市信義區信安街200號2樓,121.554864,25.022853,28,105學年度,基礎評鑑,全數指標通過基礎評鑑,46,198,4.304347826,4
臺北市私立信義蒙特梭利幼兒園,私立,臺北市,信義區,臺北市信義區忠孝東路五段236巷45弄9號1、2樓及9之1號2樓,121.5728879,25.0380713,99,102學年度,基礎評鑑,全數指標通過基礎評鑑,25,45,1.8,4.1
臺北市私立佑保幼兒園,私立,臺北市,信義區,臺北市信義區忠孝東路五段490號1,121.5781396,25.0407848,30,103學年度,無評鑑分類,全數指標改善完畢,43,168,3.906976744,4.4
臺北市私立吳興幼兒園,私立,臺北市,信義區,臺北市信義區松仁路253巷3弄8號1樓,121.569468,25.025972,19,107學年度,基礎評鑑,全數指標通過基礎評鑑,12,52,4.333333333,4.4
臺北市私立信義恩予幼兒園,私立,臺北市,信義區,臺北市信義區和平東路3段341巷12號1、2樓,121.55723,25.021252,35,102學年度,基礎評鑑,全數指標通過基礎評鑑,19,55,2.894736842,4.6
臺北市私立清心幼兒園,私立,臺北市,信義區,臺北市信義區福德街137巷4,121.5827014,25.0371485,40,107學年度,基礎評鑑,全數指標通過基礎評鑑,17,54,3.176470588,4.4
臺北市私立達德幼兒園,私立,臺北市,信義區,臺北市信義區莊敬路423巷2弄4號及6號1樓,121.566886,25.027444,36,107學年度,基礎評鑑,全數指標通過基礎評鑑,2,10,5,4.5
財團法人中華文化社會福利事業基金會台北兒童福利中心附設臺北市私立實驗幼兒園,私立,臺北市,信義區,臺北市信義區虎林街120巷270號1、 2樓，忠孝東路五段295巷8號1、2樓、275巷15號1、2、3樓,121.5710527,25.0422473,930,104學年度,基礎評鑑,全數指標通過基礎評鑑,39,125,3.205128205,4.5
臺北市政府附設臺北市私立市政大樓員工子女幼兒園,私立,臺北市,信義區,臺北市信義區市府路1號南區2樓,121.5639969,25.037531,120,105學年度,基礎評鑑,全數指標通過基礎評鑑,31,121,3.903225806,4.9
臺北市私立天琪幼兒園,私立,臺北市,信義區,臺北市信義區吳興街600巷83弄16、18號1樓,121.5717873,25.0190557,90,104學年度,基礎評鑑,全數指標通過基礎評鑑,32,112,3.5,5
臺北市私立友愛幼兒園,私立,臺北市,信義區,臺北市信義區忠孝東路5段524巷5弄23號1樓,121.5805679,25.0407999,40,107學年度,基礎評鑑,全數指標通過基礎評鑑,41,205,5,4.6
臺北市私立六三幼兒園,私立,臺北市,信義區,臺北市信義區信義路5段150巷351號1樓,121.5700799,25.0260319,90,107學年度,基礎評鑑,全數指標通過基礎評鑑,30,102,3.4,4.6
臺北市私立國泰幼兒園,私立,臺北市,信義區,臺北市信義區永吉路278巷57弄16號1樓,121.5746339,25.04326,60,107學年度,基礎評鑑,部分指標通過基礎評鑑,34,170,5,4.2
臺北市私立君格幼兒園,私立,臺北市,信義區,臺北市信義區松隆路9巷21、23號1樓,121.5670749,25.0445259,60,107學年度,基礎評鑑,全數指標通過基礎評鑑,17,63,3.705882353,4.7
臺北市私立寶兒寶幼兒園,私立,臺北市,信義區,臺北市信義區光復南路419巷17號1樓,121.55806,25.0366019,60,103學年度,基礎評鑑,全數指標通過基礎評鑑,15,65,4.333333333,4.5
臺北市私立全心幼兒園,私立,臺北市,信義區,臺北市信義區虎林街40巷30號1樓,121.575011,25.0477,28,105學年度,基礎評鑑,全數指標通過基礎評鑑,6,25,4.166666667,5
臺北市私立上群蒙特梭利忠孝幼兒園,私立,臺北市,信義區,臺北市信義區忠孝東路5段207號1、2樓,121.5703866,25.0411821,70,107學年度,基礎評鑑,部分指標通過基礎評鑑,35,147,4.2,4.4
臺北市私立慧光幼兒園,私立,臺北市,信義區,臺北市信義區虎林街232巷66弄1號1樓及232巷68、72、74、76號1樓,121.57548,25.035703,140,105學年度,基礎評鑑,全數指標通過基礎評鑑,29,125,4.310344828,2.4
臺北市私立逸仙幼兒園,私立,臺北市,信義區,臺北市信義區逸仙路42巷6號1樓,121.5621451,25.0400765,38,105學年度,追蹤評鑑,全數指標通過追蹤評鑑,12,41,3.416666667,4.2
臺北市私立甲子園幼兒園,私立,臺北市,信義區,臺北市信義區信安街161號1樓至2樓,121.5550008,25.0225199,38,104學年度,基礎評鑑,全數指標通過基礎評鑑,11,42,3.818181818,5
臺北市私立培諾米達信義幼兒園,私立,臺北市,信義區,臺北市信義區松德路161之4號1樓及161號2樓,121.5750407,25.0362226,56,103學年度,基礎評鑑,全數指標通過基礎評鑑,43,163,3.790697674,4
臺北市私立宗周幼兒園,私立,臺北市,信義區,臺北市信義區松山路393巷32號1樓及忠孝東路五段621巷4號1樓,121.579054,25.041969,40,105學年度,基礎評鑑,全數指標通過基礎評鑑,42,134,3.19047619,5
臺北市私立天主教三德幼兒園,私立,臺北市,信義區,臺北市信義區松仁路228巷15號1樓至2樓,121.5679359,25.024883,170,104學年度,基礎評鑑,全數指標通過基礎評鑑,23,62,2.695652174,4
財團法人台北市中華基督教青年會附設臺北市私立永吉幼兒園,私立,臺北市,信義區,臺北市信義區永吉路500號,121.5798032,25.0452273,90,105學年度,基礎評鑑,全數指標通過基礎評鑑,38,186,4.894736842,4
臺北市私立上群蒙特梭利信義幼兒園,私立,臺北市,信義區,臺北市信義區忠孝東路5段217號,121.5703866,25.0411821,75,107學年度,基礎評鑑,全數指標通過基礎評鑑,31,155,5,5
臺北市信中非營利幼兒園,非營利,臺北市,信義區,臺北市信義區松仁路158巷1號,121.5728697,25.0475154,106,無評鑑資料,無評鑑資料,無評鑑資料,38,175,4.605263158,4.2
臺北市吉中非營利幼兒園,非營利,臺北市,信義區,臺北市信義區松隆路161號,121.5728697,25.0475154,152,無評鑑資料,無評鑑資料,無評鑑資料,30,105,3.5,3.7
臺北市?公非營利幼兒園,非營利,臺北市,信義區,臺北市信義區福德街221巷15號,121.585339,25.037088,106,無評鑑資料,無評鑑資料,無評鑑資料,45,203,4.511111111,4.5
臺北市士林區百齡國民小學附設幼兒園,公立,臺北市,士林區,臺北市士林區福港街205號,121.5178264,25.0863635,226,105學年度,基礎評鑑,全數指標通過基礎評鑑,36,151,4.194444444,4.7
臺北市士林區社子國民小學附設幼兒園,公立,臺北市,士林區,臺北市士林區延平北路六段308號,121.5027273,25.089958,226,105學年度,基礎評鑑,全數指標通過基礎評鑑,4,13,3.25,3.3
臺北市士林區福林國民小學附設幼兒園,公立,臺北市,士林區,臺北市士林區福志路75號,121.5295952,25.0986822,106,105學年度,基礎評鑑,全數指標通過基礎評鑑,39,183,4.692307692,5
臺北市士林區陽明山國民小學附設幼兒園,公立,臺北市,士林區,臺北市士林區仰德大道三段61號,121.5527652,25.1198928,76,105學年度,基礎評鑑,全數指標通過基礎評鑑,28,132,4.714285714,4.1
臺北市士林區雨農國民小學附設幼兒園,公立,臺北市,士林區,臺北市士林區忠義街1號,121.5299584,25.1052915,120,105學年度,基礎評鑑,全數指標通過基礎評鑑,48,182,3.791666667,4
臺北市士林區文昌國民小學附設幼兒園,公立,臺北市,士林區,臺北市士林區文林路615巷20號,121.5213325,25.0994096,106,105學年度,基礎評鑑,全數指標通過基礎評鑑,42,206,4.904761905,5
臺北市士林區芝山國民小學附設幼兒園,公立,臺北市,士林區,臺北市士林區德行東路285號,121.5364268,25.1102509,212,105學年度,基礎評鑑,全數指標通過基礎評鑑,19,53,2.789473684,5
臺北市士林區富安國民小學附設幼兒園,公立,臺北市,士林區,臺北市士林區延平北路八段135號,121.482581,25.105838,106,105學年度,基礎評鑑,全數指標通過基礎評鑑,2,3,1.5,4
臺北市士林區士林國民小學附設幼兒園,公立,臺北市,士林區,臺北市士林區大東路165號,121.5249268,25.0933199,136,105學年度,基礎評鑑,全數指標通過基礎評鑑,26,68,2.615384615,5
臺北市士林區雨聲國民小學附設幼兒園,公立,臺北市,士林區,臺北市士林區至誠路一段62巷70號,121.5352657,25.1026251,152,105學年度,基礎評鑑,全數指標通過基礎評鑑,3,14,4.666666667,5
臺北市士林區雙溪國民小學附設幼兒園,公立,臺北市,士林區,臺北市士林區中社路二段66號,121.5647875,25.1064871,30,105學年度,基礎評鑑,全數指標通過基礎評鑑,18,22,1.222222222,4.7
臺北市士林區劍潭國民小學附設幼兒園,公立,臺北市,士林區,臺北市士林區通河街16號,121.5228989,25.0798338,120,105學年度,基礎評鑑,全數指標通過基礎評鑑,39,191,4.897435897,3.3
臺北市士林區蘭雅國民小學附設幼兒園,公立,臺北市,士林區,臺北市士林區磺溪街57號,121.523121,25.108283,166,105學年度,基礎評鑑,全數指標通過基礎評鑑,45,126,2.8,4.4
臺北市士林區士東國民小學附設幼兒園,公立,臺北市,士林區,臺北市士林區中山北路6段392號,121.5268279,25.1129302,90,105學年度,基礎評鑑,全數指標通過基礎評鑑,19,67,3.526315789,5
臺北市士林區葫蘆國民小學附設幼兒園,公立,臺北市,士林區,臺北市士林區環河北路3段95號,121.5082224,25.0841295,136,105學年度,基礎評鑑,全數指標通過基礎評鑑,38,114,3,1
臺北市士林區平等國民小學附設幼兒園,公立,臺北市,士林區,臺北市士林區平菁街101號,121.5767074,25.1288022,30,105學年度,基礎評鑑,全數指標通過基礎評鑑,40,120,3,4.4
臺北市立士林幼兒園,公立,臺北市,士林區,臺北市士林區通河街179巷2號,121.519574,25.081838,150,105學年度,基礎評鑑,全數指標通過基礎評鑑,28,70,2.5,5
臺北市士林區溪山國民小學附設幼兒園,公立,臺北市,士林區,臺北市士林區至善路三段199號,121.5796194,25.1195861,30,105學年度,基礎評鑑,全數指標通過基礎評鑑,19,63,3.315789474,3.9
臺北市立啟智學校幼兒部,公立,臺北市,士林區,臺北市士林區忠誠路2段207巷3號,121.536225,25.116617,0,無評鑑資料,無評鑑資料,無評鑑資料,39,156,4,3
臺北市立啟明學校幼兒部,公立,臺北市,士林區,臺北市士林區忠誠路2段207巷1號,121.534969,25.116621,0,無評鑑資料,無評鑑資料,無評鑑資料,2,10,5,4.9
臺北市私立太和騰幼兒園,私立,臺北市,士林區,臺北市士林區延平北路6段227號1至3樓,121.505105,25.089285,97,107學年度,基礎評鑑,部分指標通過基礎評鑑,45,162,3.6,4.8
臺北市私立慈暉幼兒園,私立,臺北市,士林區,"臺北市士林區永平街46巷3弄7,9號1樓及9號2樓",121.505868,25.091076,40,107學年度,基礎評鑑,全數指標通過基礎評鑑,26,94,3.615384615,5
臺北市私立好來幼兒園,私立,臺北市,士林區,臺北市士林區中山北路七段225之1號1,121.5331356,25.1276803,120,107學年度,基礎評鑑,全數指標通過基礎評鑑,22,90,4.090909091,4.6
臺北市私立飛達幼兒園,私立,臺北市,士林區,臺北市士林區延平北路六段210號1樓、2樓之1、2樓之2及212號1樓,121.504935,25.089488,90,104學年度,基礎評鑑,全數指標通過基礎評鑑,10,29,2.9,4.5
臺北市私立淘兒園幼兒園,私立,臺北市,士林區,"臺北市士林區承德路四段57號一樓,53號二樓,55號二樓,",121.523153,25.0815967,64,102學年度,基礎評鑑,全數指標通過基礎評鑑,20,100,5,4.7
臺北市私立華邇街幼兒園,私立,臺北市,士林區,"臺北市士林區中山北路六段290巷7弄8號1,2樓",121.527101,25.110014,70,104學年度,基礎評鑑,全數指標通過基礎評鑑,32,122,3.8125,5
財團法人林迺翁文教基金會附設臺北市私立天鵝堡幼兒園,私立,臺北市,士林區,臺北市士林區至善路2段280之1號、280之1號2樓、280之1號3樓,121.551985,25.100628,210,107學年度,基礎評鑑,部分指標通過基礎評鑑,49,123,2.510204082,5
臺北市私立多多種子幼兒園,私立,臺北市,士林區,臺北市士林區延平北路五段245巷2,121.5094209,25.084724,60,104學年度,基礎評鑑,全數指標通過基礎評鑑,49,235,4.795918367,4.3
臺北市私立忠義幼兒園,私立,臺北市,士林區,臺北市士林區士東路54巷11、19、21號,121.5283157,25.1113992,150,103學年度,基礎評鑑,全數指標通過基礎評鑑,35,105,3,4.5
臺北市私立民華幼兒園,私立,臺北市,士林區,臺北市士林區華齡街211號1、2、3樓,121.519622,25.0882949,360,105學年度,基礎評鑑,全數指標通過基礎評鑑,26,130,5,5
臺北市私立十大幼兒園,私立,臺北市,士林區,臺北市士林區天母東路92號1樓,121.536095,25.1180019,60,104學年度,基礎評鑑,全數指標通過基礎評鑑,15,69,4.6,3.7
臺北市私立幼心幼兒園,私立,臺北市,士林區,臺北市士林區中正路335巷18號,121.5228959,25.0938139,180,107學年度,基礎評鑑,部分指標通過基礎評鑑,35,77,2.2,4.3
臺北市私立泰安幼兒園,私立,臺北市,士林區,臺北市士林區中山北路五段八二九巷14,121.525102,25.101741,90,103學年度,基礎評鑑,全數指標通過基礎評鑑,23,53,2.304347826,4.6
臺北市私立博仁幼兒園,私立,臺北市,士林區,臺北市士林區中山北路六段405巷29、31號,121.52557,25.114664,120,103學年度,基礎評鑑,全數指標通過基礎評鑑,27,81,3,4.4
臺北市私立育成幼兒園,私立,臺北市,士林區,臺北市士林區承德路四段12巷10,121.521319,25.079988,60,107學年度,基礎評鑑,全數指標通過基礎評鑑,50,190,3.8,4.6
臺北市私立何嘉仁士林幼兒園,私立,臺北市,士林區,"臺北市士林區中正路116號1,2樓、118號1,2樓、118-1號2樓",121.5290003,25.0962069,141,104學年度,基礎評鑑,全數指標通過基礎評鑑,17,43,2.529411765,4
臺北市私立日晴幼兒園,私立,臺北市,士林區,臺北市士林區福港街158號2樓,121.51858,25.088058,38,107學年度,基礎評鑑,全數指標通過基礎評鑑,50,120,2.4,4
臺北市私立天母蒙特梭利幼兒園,私立,臺北市,士林區,臺北市士林區天母西路95巷21號1,121.525187,25.120009,112,105學年度,基礎評鑑,全數指標通過基礎評鑑,38,99,2.605263158,4.4
臺北市私立社中幼兒園,私立,臺北市,士林區,"臺北市士林區社中街424號1,2樓",121.5025544,25.0919595,62,105學年度,基礎評鑑,全數指標通過基礎評鑑,4,12,3,3.7
臺北市私立捷森幼兒園,私立,臺北市,士林區,臺北市士林區天玉街15號1~4樓,121.5275109,25.1205528,150,102學年度,基礎評鑑,全數指標通過基礎評鑑,46,166,3.608695652,4.2
臺北市私立幼天才幼兒園,私立,臺北市,士林區,臺北市士林區福港街107巷16、18、20號1樓,121.51858,25.088058,40,103學年度,基礎評鑑,全數指標通過基礎評鑑,34,105,3.088235294,3.9
臺北市私立心愛幼兒園,私立,臺北市,士林區,臺北市士林區中山北路七段190巷104號1、2樓,121.537079,25.125853,180,104學年度,基礎評鑑,全數指標通過基礎評鑑,9,23,2.555555556,4.5
臺北市私立有緣蒙特梭利幼兒園,私立,臺北市,士林區,臺北市士林區忠誠路2段32巷11號1樓,121.5294466,25.1093629,38,103學年度,基礎評鑑,全數指標通過基礎評鑑,28,115,4.107142857,4.4
臺北市私立德行幼兒園,私立,臺北市,士林區,臺北市士林區中山北路6段290巷48,121.527101,25.110014,90,102學年度,基礎評鑑,全數指標通過基礎評鑑,46,225,4.891304348,4.5
臺北市私立何嘉仁幼兒園,私立,臺北市,士林區,臺北市士林區延平北路五段231巷1號,121.5094379,25.0841513,120,107學年度,基礎評鑑,全數指標通過基礎評鑑,31,155,5,4.2
財團法人臺灣聖公會附設臺北市私立牧愛堂幼兒園,私立,臺北市,士林區,臺北市士林區中正路509號,121.5175996,25.0914271,270,107學年度,基礎評鑑,全數指標通過基礎評鑑,8,34,4.25,4.4
臺北市私立博如幼兒園,私立,臺北市,士林區,"臺北市士林區雙溪街18,20號1樓",121.5307472,25.1007833,70,105學年度,基礎評鑑,全數指標通過基礎評鑑,7,18,2.571428571,3.7
臺北市私立博如日本幼兒幼兒園,私立,臺北市,士林區,臺北市士林區克強路10巷9弄29及31號1樓,121.523031,25.109334,40,105學年度,基礎評鑑,全數指標通過基礎評鑑,45,198,4.4,5
臺北市私立佳嬰幼兒園,私立,臺北市,士林區,臺北市士林區大東路126號1樓,121.525551,25.091826,29,107學年度,基礎評鑑,部分指標通過基礎評鑑,2,9,4.5,4.9
臺北市私立弘明幼兒園,私立,臺北市,士林區,臺北市士林區中山北路7段114巷11號,121.5331941,25.1222362,99,102學年度,基礎評鑑,全數指標通過基礎評鑑,12,40,3.333333333,3
臺北市私立求真幼兒園,私立,臺北市,士林區,臺北市士林區通河東街一段136巷24,121.517146,25.087116,37,105學年度,基礎評鑑,全數指標通過基礎評鑑,35,154,4.4,4.4
臺北市私立翰諾幼兒園,私立,臺北市,士林區,臺北市士林區德行東路61巷4號1、2樓,121.5271388,25.1073868,40,102學年度,追蹤評鑑,全數指標通過追蹤評鑑,13,38,2.923076923,5
臺北市私立比特幼兒園,私立,臺北市,士林區,臺北市士林區社中街381號1樓,121.503388,25.0920254,30,104學年度,基礎評鑑,全數指標通過基礎評鑑,15,66,4.4,3.8
臺北市私立浩恩幼兒園,私立,臺北市,士林區,臺北市士林區忠義街91巷17,121.5333592,25.1062588,40,102學年度,追蹤評鑑,全數指標通過追蹤評鑑,50,250,5,5
臺北市私立正音幼兒園,私立,臺北市,士林區,臺北市士林區東山路135號1樓,121.5398545,25.1122304,116,105學年度,基礎評鑑,全數指標通過基礎評鑑,5,19,3.8,5
臺北市私立育強幼兒園,私立,臺北市,士林區,臺北市士林區社正路45巷12號1、2樓,121.5101308,25.0899183,90,102學年度,基礎評鑑,全數指標通過基礎評鑑,6,21,3.5,5
臺北市私立星莆幼兒園,私立,臺北市,士林區,臺北市士林區社中街289、291號1樓,121.505847,25.092015,40,105學年度,追蹤評鑑,全數指標通過追蹤評鑑,7,33,4.714285714,4.8
臺北市私立沐恩蒙特梭利幼兒園,私立,臺北市,士林區,臺北市士林區天母東路69巷11之5號1樓,121.5337484,25.1195516,33,107學年度,基礎評鑑,全數指標通過基礎評鑑,6,27,4.5,5
臺北市私立敦品幼兒園,私立,臺北市,士林區,臺北市士林區忠誠路一段173巷13號1、2樓,121.5313827,25.108165,39,103學年度,基礎評鑑,全數指標通過基礎評鑑,3,14,4.666666667,5
臺北市私立孩子國幼兒園,私立,臺北市,士林區,臺北市士林區承德路四段185號1、2樓、2樓之1及187號2樓、2樓之1,121.52242,25.0879505,99,107學年度,基礎評鑑,全數指標通過基礎評鑑,27,84,3.111111111,4.5
臺北市私立種籽幼兒園,私立,臺北市,士林區,臺北市士林區中山北路六段290巷11弄3號1樓,121.5267445,25.1100425,53,104學年度,追蹤評鑑,全數指標通過追蹤評鑑,48,230,4.791666667,4.5
臺北市私立士林科見幼兒園,私立,臺北市,士林區,臺北市士林區中山北路五段608、610號1、2樓,121.527998,25.096395,108,103學年度,基礎評鑑,全數指標通過基礎評鑑,48,216,4.5,4.5
臺北市私立怡寶幼兒園,私立,臺北市,士林區,臺北市士林區中山北路六段2巷33號1樓,121.5275638,25.1034691,28,103學年度,基礎評鑑,全數指標通過基礎評鑑,40,140,3.5,5
臺北市私立怡寶資優幼兒園,私立,臺北市,士林區,臺北市士林區中山北路六段2巷39號1、2樓,121.527817,25.103544,40,105學年度,基礎評鑑,全數指標通過基礎評鑑,44,132,3,5
臺北市私立道爾敦幼兒園,私立,臺北市,士林區,臺北市士林區中山北路七段224號1、2樓及224之1號1、2樓,121.533307,25.126981,150,103學年度,基礎評鑑,全數指標通過基礎評鑑,22,110,5,4.5
臺北市私立寶寶幼兒園,私立,臺北市,士林區,臺北市士林區社中街231巷27號1樓,121.5076604,25.0904287,27,105學年度,追蹤評鑑,全數指標通過追蹤評鑑,4,11,2.75,3.8
臺北市私立奧爾仕幼兒園,私立,臺北市,士林區,臺北市士林區至善路二段1之1號1、2樓,121.5430908,25.0974207,150,104學年度,基礎評鑑,全數指標通過基礎評鑑,16,75,4.6875,4.4
臺北市私立凱斯幼兒園,私立,臺北市,士林區,臺北市士林區承德路四段179巷7號及7之1號1樓,121.5231597,25.0878837,99,107學年度,基礎評鑑,全數指標通過基礎評鑑,42,193,4.595238095,5
臺北市私立愛樂芬幼兒園,私立,臺北市,士林區,臺北市士林區社子街63巷8號1樓,121.506715,25.087835,21,107學年度,基礎評鑑,全數指標通過基礎評鑑,8,34,4.25,5
臺北市私立欣光幼兒園,私立,臺北市,士林區,臺北市士林區福港街259巷4號1樓至2樓及6號1樓,121.5179259,25.083797,120,105學年度,基礎評鑑,全數指標通過基礎評鑑,6,20,3.333333333,5
臺北市私立師達幼兒園,私立,臺北市,士林區,臺北市士林區士東路91巷26弄12號1樓至2樓,121.5300833,25.1128,36,105學年度,追蹤評鑑,全數指標通過追蹤評鑑,24,98,4.083333333,2.8
臺北市私立熊寶貝幼兒園,私立,臺北市,士林區,臺北市士林區士東路46巷26號1樓,121.527312,25.110613,165,107學年度,基礎評鑑,全數指標通過基礎評鑑,50,235,4.7,4.5
臺北市私立精采童年幼兒園,私立,臺北市,士林區,臺北市士林區天母北路42之2號1、2樓及天母北路42之1號2樓之1,121.5264126,25.1204361,115,105學年度,基礎評鑑,全數指標通過基礎評鑑,45,194,4.311111111,4.8
臺北市私立太和蒙特梭利幼兒園,私立,臺北市,士林區,臺北市士林區中山北路六段290巷7弄7號1樓,121.526457,25.110481,60,107學年度,基礎評鑑,全數指標通過基礎評鑑,43,215,5,4.3
臺北市私立道思幼兒園,私立,臺北市,士林區,臺北市士林區天母北路61號1樓、61之1號1樓及61之1號2樓,121.526841,25.121177,100,107學年度,基礎評鑑,全數指標通過基礎評鑑,22,75,3.409090909,5
臺北市私立微笑音符幼兒園,私立,臺北市,士林區,臺北市士林區至誠路1段148號1樓及2樓,121.5340998,25.1014855,29,無評鑑資料,無評鑑資料,無評鑑資料,49,132,2.693877551,3.7
臺北市三玉非營利幼兒園,非營利,臺北市,士林區,臺北市士林區忠誠路二段53巷7號1、2樓,121.5325045,25.1115924,200,105學年度,基礎評鑑,全數指標通過基礎評鑑,28,73,2.607142857,5
臺北市葫蘆非營利幼兒園,非營利,臺北市,士林區,臺北市士林區延平北路5段136巷1號1,121.5108584,25.082281,150,105學年度,基礎評鑑,全數指標通過基礎評鑑,28,132,4.714285714,5
社團法人台北市幼兒園協會附設臺北市私立天母非營利幼兒園,非營利,臺北市,士林區,臺北市士林區天玉街12號,121.5276708,25.1197346,90,無評鑑資料,無評鑑資料,無評鑑資料,25,55,2.2,4
臺北市新三玉非營利幼兒園,非營利,臺北市,士林區,臺北市士林區天母東路116號,121.5372679,25.1178607,106,無評鑑資料,無評鑑資料,無評鑑資料,22,70,3.181818182,3.6
臺北市泰北非營利幼兒園,非營利,臺北市,士林區,臺北市士林區福林路240號,121.533898,25.097375,106,無評鑑資料,無評鑑資料,無評鑑資料,19,36,1.894736842,5
臺北市湖田實驗國民小學附設幼兒園,公立,臺北市,北投區,臺北市北投區竹子湖路17之2號,121.538774,25.168457,30,107學年度,基礎評鑑,全數指標通過基礎評鑑,31,118,3.806451613,4.3
臺北市北投區立農國民小學附設幼兒園,公立,臺北市,北投區,臺北市北投區立農街一段250號,121.505032,25.119493,120,107學年度,基礎評鑑,全數指標通過基礎評鑑,23,104,4.52173913,4.8
臺北市北投區逸仙國民小學附設幼兒園,公立,臺北市,北投區,臺北市北投區新民路2號,121.5051666,25.1383717,166,107學年度,基礎評鑑,全數指標通過基礎評鑑,20,70,3.5,4.5
臺北市北投區文林國民小學附設幼兒園,公立,臺北市,北投區,臺北市北投區文林北路155號,121.5147455,25.1059061,166,107學年度,基礎評鑑,全數指標通過基礎評鑑,27,108,4,4.8
臺北市北投區石牌國民小學附設幼兒園,公立,臺北市,北投區,臺北市北投區致遠二路80號,121.5118475,25.1157626,210,107學年度,基礎評鑑,全數指標通過基礎評鑑,42,130,3.095238095,4.7
臺北市北投區義方國民小學附設幼兒園,公立,臺北市,北投區,臺北市北投區珠海路155號,121.5092916,25.1419691,90,107學年度,基礎評鑑,全數指標通過基礎評鑑,38,99,2.605263158,4.3
臺北市北投區文化國民小學附設幼兒園,公立,臺北市,北投區,臺北市北投區文化三路1號,121.4965074,25.1371562,60,107學年度,基礎評鑑,全數指標通過基礎評鑑,12,50,4.166666667,4.1
臺北市北投區明德國民小學附設幼兒園,公立,臺北市,北投區,臺北市北投區明德路190號,121.5217958,25.112128,120,107學年度,基礎評鑑,全數指標通過基礎評鑑,9,38,4.222222222,4.3
臺北市北投區北投國民小學附設幼兒園,公立,臺北市,北投區,臺北市北投區中央北路一段73號,121.5002075,25.1341467,196,107學年度,基礎評鑑,全數指標通過基礎評鑑,2,6,3,4.5
臺北市北投區關渡國民小學附設幼兒園,公立,臺北市,北投區,臺北市北投區中央北路四段581號,121.4662193,25.1264277,150,107學年度,基礎評鑑,全數指標通過基礎評鑑,11,51,4.636363636,4.7
臺北市北投區清江國民小學附設幼兒園,公立,臺北市,北投區,臺北市北投區公館路220號,121.5074753,25.1268231,120,107學年度,基礎評鑑,全數指標通過基礎評鑑,46,156,3.391304348,4
臺北市泉源實驗國民小學附設幼兒園,公立,臺北市,北投區,臺北市北投區東昇路34號,121.5240858,25.1493082,30,107學年度,基礎評鑑,全數指標通過基礎評鑑,23,39,1.695652174,3.9
臺北市北投區大屯國民小學附設幼兒園,公立,臺北市,北投區,臺北市北投區復興三路312號,121.5040167,25.1549141,30,107學年度,基礎評鑑,全數指標通過基礎評鑑,47,160,3.404255319,3.9
臺北市北投區桃源國民小學附設幼兒園,公立,臺北市,北投區,臺北市北投區中央北路三段40巷45號,121.4844614,25.1397049,60,104學年度,基礎評鑑,全數指標通過基礎評鑑,7,31,4.428571429,4.2
臺北市北投區湖山國民小學附設幼兒園,公立,臺北市,北投區,臺北市北投區湖底路11號,121.5352663,25.1496452,30,107學年度,基礎評鑑,全數指標通過基礎評鑑,44,194,4.409090909,4.6
臺北市立北投幼兒園,公立,臺北市,北投區,臺北市北投區明德路208巷5號,121.5226597,25.1131773,150,107學年度,基礎評鑑,全數指標通過基礎評鑑,20,86,4.3,4.3
臺北市私立新成功幼兒園,私立,臺北市,北投區,臺北市北投區實踐街54號,121.509411,25.1151664,90,103學年度,基礎評鑑,全數指標通過基礎評鑑,32,106,3.3125,4.1
臺北市私立米蘿幼兒園,私立,臺北市,北投區,臺北市北投區文化三路12號1樓,121.497828,25.137586,22,102學年度,基礎評鑑,全數指標通過基礎評鑑,19,95,5,4.5
臺北市私立正大幼兒園,私立,臺北市,北投區,臺北市北投區義理街49巷2至4號1-2樓及2號3樓,121.515523,25.117007,102,105學年度,基礎評鑑,全數指標通過基礎評鑑,36,151,4.194444444,4.8
財團法人天主教會台北教區附設臺北市私立達義幼兒園,私立,臺北市,北投區,臺北市北投區致遠一路2段40巷11號1、2、3樓,121.5146955,25.1121091,180,104學年度,基礎評鑑,全數指標通過基礎評鑑,37,107,2.891891892,3.1
財團法人臺灣基督長老教會雙連教會附設臺北市私立雙連幼兒園,私立,臺北市,北投區,臺北市北投區承德路7段221號1、2、3樓,121.5061053,25.1147117,1200,107學年度,基礎評鑑,全數指標通過基礎評鑑,37,185,5,4.8
臺北市私立佳人幼兒園,私立,臺北市,北投區,臺北市北投區實踐街49巷25號1、2樓,121.509219,25.116797,63,105學年度,基礎評鑑,全數指標通過基礎評鑑,31,50,1.612903226,5
臺北市私立石牌旭東幼兒園,私立,臺北市,北投區,臺北市北投區實踐街82巷14號及16號1樓,121.510803,25.114803,53,107學年度,基礎評鑑,部分指標通過基礎評鑑,27,130,4.814814815,3.5
臺北市私立新茗幼兒園,私立,臺北市,北投區,臺北市北投區立農街二段257之1號1樓,121.5143728,25.1190813,20,107學年度,基礎評鑑,全數指標通過基礎評鑑,37,133,3.594594595,4.5
臺北市私立采郁蒙特梭利幼兒園,私立,臺北市,北投區,臺北市北投區中央北路四段577巷27弄1號1樓,121.467735,25.126476,26,107學年度,基礎評鑑,全數指標通過基礎評鑑,39,121,3.102564103,3.9
臺北市私立優格快樂幼兒園,私立,臺北市,北投區,臺北市北投區石牌路二段315巷10弄10號1樓,121.523187,25.122894,40,107學年度,基礎評鑑,全數指標通過基礎評鑑,5,12,2.4,4.4
臺北市私立丹佛幼兒園,私立,臺北市,北投區,臺北市北投區石牌路二段358之1號及358之2號1、2樓,121.5253491,25.1233851,94,105學年度,基礎評鑑,全數指標通過基礎評鑑,7,25,3.571428571,4
臺北市私立優格幼兒園,私立,臺北市,北投區,臺北市北投區石牌路二段315巷10弄10號2樓,121.523187,25.122894,28,104學年度,基礎評鑑,全數指標通過基礎評鑑,48,206,4.291666667,5
臺北市私立何嘉仁北投幼兒園,私立,臺北市,北投區,臺北市北投區中央北路二段335之2號1、2樓,121.4889636,25.1383134,159,105學年度,基礎評鑑,全數指標通過基礎評鑑,35,123,3.514285714,3.8
臺北市私立發現蒙特梭利幼兒園,私立,臺北市,北投區,臺北市北投區文林北路80巷90弄41號1、2樓,121.520353,25.106311,42,104學年度,基礎評鑑,全數指標通過基礎評鑑,14,62,4.428571429,4.5
臺北市私立凱薩琳幼兒園,私立,臺北市,北投區,臺北市北投區公館路279巷2號1、2樓,121.507326,25.12479,51,105學年度,基礎評鑑,全數指標通過基礎評鑑,45,153,3.4,5
臺北市私立卡蕾兒幼兒園,私立,臺北市,北投區,臺北市北投區文化三路14號1樓,121.497876,25.13761,21,105學年度,追蹤評鑑,全數指標通過追蹤評鑑,29,122,4.206896552,4.5
臺北市私立藍天幼兒園,私立,臺北市,北投區,臺北市北投區中和街392號1、2樓,121.498286,25.143309,32,102學年度,基礎評鑑,全數指標通過基礎評鑑,3,5,1.666666667,5
臺北市私立聖德幼兒園,私立,臺北市,北投區,臺北市北投區洲美街271號1樓,121.4992732,25.109361,174,104學年度,追蹤評鑑,全數指標通過追蹤評鑑,30,150,5,3.9
臺北市私立一德幼兒園,私立,臺北市,北投區,臺北市北投區明德路136巷9號1樓,121.521268,25.1099239,120,107學年度,基礎評鑑,全數指標通過基礎評鑑,26,81,3.115384615,3.6
臺北市私立培爾幼兒園,私立,臺北市,北投區,臺北市北投區大屯路31巷15號及91巷15號,121.500697,25.144553,150,102學年度,追蹤評鑑,全數指標通過追蹤評鑑,3,15,5,3
臺北市私立旭東幼兒園,私立,臺北市,北投區,臺北市北投區中和街446巷56號,121.496788,25.146915,120,107學年度,基礎評鑑,部分指標通過基礎評鑑,16,53,3.3125,4.6
臺北市私立新天地幼兒園,私立,臺北市,北投區,臺北市北投區中央北路4段32號1-4樓,121.4779967,25.1351548,258,107學年度,基礎評鑑,全數指標通過基礎評鑑,18,56,3.111111111,5
臺北市私立橘子蒙特梭利幼兒園,私立,臺北市,北投區,臺北市北投區知行路292巷6、8號1樓,121.468449,25.12165,90,107學年度,基礎評鑑,全數指標通過基礎評鑑,30,132,4.4,4
臺北市私立皇家幼兒園,私立,臺北市,北投區,臺北市北投區榮華二路9號1樓,121.5240369,25.113251,60,105學年度,追蹤評鑑,全數指標通過追蹤評鑑,47,174,3.70212766,0
臺北市私立育奇幼兒園,私立,臺北市,北投區,臺北市北投區大同街200巷1號1樓,121.499456,25.137655,30,102學年度,基礎評鑑,全數指標通過基礎評鑑,38,129,3.394736842,3.9
臺北市私立艾法貝納幼兒園,私立,臺北市,北投區,臺北市北投區行義路10巷2號2樓之1,121.5264784,25.1242775,70,103學年度,基礎評鑑,全數指標通過基礎評鑑,3,12,4,5
臺北市私立奎山中學附設幼兒園,私立,臺北市,北投區,臺北市北投區明德路200號,121.5223028,25.112998,90,103學年度,基礎評鑑,全數指標通過基礎評鑑,41,107,2.609756098,3
臺北市私立桃樂絲幼兒園,私立,臺北市,北投區,臺北市北投區民族街12號1、2樓,121.504468,25.132083,23,105學年度,基礎評鑑,全數指標通過基礎評鑑,37,185,5,4.5
臺北市私立成美蒙特梭利幼兒園,私立,臺北市,北投區,臺北市北投區裕民六路114巷36弄5號1樓及7號1樓,121.5187591,25.1140759,40,105學年度,基礎評鑑,全數指標通過基礎評鑑,11,11,1,4.8
臺北市私立華民幼兒園,私立,臺北市,北投區,臺北市北投區石牌路二段358號1、2樓,121.5252855,25.1233461,99,103學年度,基礎評鑑,全數指標通過基礎評鑑,27,95,3.518518519,3
臺北市私立晴晴幼兒園,私立,臺北市,北投區,臺北市北投區致遠一路一段104巷19號1、2樓,121.5159,25.109974,30,107學年度,基礎評鑑,部分指標通過基礎評鑑,45,158,3.511111111,5
臺北市私立資優兒童幼兒園,私立,臺北市,北投區,臺北市北投區中央北路一段179巷1號1樓,121.497859,25.135497,16,102學年度,追蹤評鑑,全數指標通過追蹤評鑑,6,30,5,4.9
臺北市私立德美蒙特梭利幼兒園,私立,臺北市,北投區,臺北市北投區東華街二段92之2及92之3號1樓,121.5148848,25.1160142,27,107學年度,基礎評鑑,全數指標通過基礎評鑑,2,7,3.5,5
臺北市私立心美蒙特梭利幼兒園,私立,臺北市,北投區,臺北市北投區東華街二段92號及92之1號1樓,121.5135108,25.1179982,36,103學年度,基礎評鑑,全數指標通過基礎評鑑,27,100,3.703703704,3.3
臺北市私立豐年幼兒園,私立,臺北市,北投區,臺北市北投區中央北路二段95巷1弄40號及42號1樓,121.4965887,25.1358411,33,102學年度,追蹤評鑑,全數指標通過追蹤評鑑,45,216,4.8,5
臺北市私立北投青青幼兒園,私立,臺北市,北投區,臺北市北投區溫泉路73巷5號1樓,121.5057111,25.1357869,30,103學年度,基礎評鑑,全數指標通過基礎評鑑,10,44,4.4,2.9
臺北市私立資優兒幼兒園,私立,臺北市,北投區,臺北市北投區文林北路80巷38弄10號1樓,121.518946,25.1054696,30,107學年度,基礎評鑑,全數指標通過基礎評鑑,49,225,4.591836735,5
臺北市私立潘蜜拉幼兒園,私立,臺北市,北投區,臺北市北投區大屯路21巷21號1樓,121.499788,25.1437839,90,107學年度,基礎評鑑,全數指標通過基礎評鑑,47,155,3.29787234,5
臺北市私立巨登堡幼兒園,私立,臺北市,北投區,臺北市北投區公?路77號1樓,121.5041722,25.131896,34,104學年度,追蹤評鑑,全數指標通過追蹤評鑑,35,112,3.2,4.2
臺北市私立樂家幼兒園,私立,臺北市,北投區,臺北市北投區實踐街6巷3弄11號1樓,121.5083106,25.1146842,29,104學年度,追蹤評鑑,全數指標通過追蹤評鑑,45,162,3.6,4
臺北榮民總醫院附設臺北市私立榮光幼兒園,私立,臺北市,北投區,臺北市北投區石牌路二段201號1樓至3樓,121.5203822,25.1192105,99,103學年度,基礎評鑑,全數指標通過基礎評鑑,29,145,5,4.1
臺北市私立道生幼兒園,私立,臺北市,北投區,臺北市北投區中央北路三段188號1、2、3樓,121.4813729,25.136876,270,102學年度,基礎評鑑,全數指標通過基礎評鑑,38,160,4.210526316,5
臺北市私立天華幼兒園,私立,臺北市,北投區,臺北市北投區清江路25巷7號1樓、7之2號1樓、5號2樓及7號2樓,121.5022793,25.131639,62,107學年度,基礎評鑑,全數指標通過基礎評鑑,45,225,5,5
臺北市私立薇閣國民小學附設幼兒園,私立,臺北市,北投區,臺北市北投區珠海路50號1樓至2樓,121.5044057,25.1399163,600,104學年度,基礎評鑑,全數指標通過基礎評鑑,37,159,4.297297297,3.4
臺北市私立城市國際幼兒園,私立,臺北市,北投區,臺北市北投區學園路2號2樓,121.468879,25.133617,100,107學年度,基礎評鑑,全數指標通過基礎評鑑,15,26,1.733333333,4.6
臺北市私立國際蒙特梭利北投幼兒園,私立,臺北市,北投區,臺北市北投區光明路226-1號,121.5054172,25.1360323,29,無評鑑資料,無評鑑資料,無評鑑資料,12,52,4.333333333,2.7
臺北市私立愛德恩幼兒園,私立,臺北市,北投區,臺北市北投區石牌路二段303號,121.522816,25.1214519,50,無評鑑資料,無評鑑資料,無評鑑資料,3,11,3.666666667,5
社團法人台北市親子成長協會附設臺北市私立吉利非營利幼兒園,非營利,臺北市,北投區,臺北市北投區立農街一段366號1至3樓,121.5084025,25.1192877,147,103學年度,基礎評鑑,全數指標通過基礎評鑑,24,106,4.416666667,5
臺北市內湖區康寧國民小學附設幼兒園,公立,臺北市,內湖區,臺北市內湖區星雲街121號,121.5948556,25.0799917,150,105學年度,基礎評鑑,全數指標通過基礎評鑑,44,220,5,3.7
臺北市內湖區西湖國民小學附設幼兒園,公立,臺北市,內湖區,臺北市內湖區環山路一段25號,121.5657018,25.0838153,76,105學年度,基礎評鑑,全數指標通過基礎評鑑,13,65,5,1
臺北市內湖區南湖國民小學附設幼兒園,公立,臺北市,內湖區,臺北市內湖區康寧路三段200號,121.6116241,25.0681686,180,105學年度,基礎評鑑,全數指標通過基礎評鑑,27,116,4.296296296,3
臺北市內湖區麗山國民小學附設幼兒園,公立,臺北市,內湖區,臺北市內湖區港華街100號,121.572405,25.0835175,196,105學年度,基礎評鑑,全數指標通過基礎評鑑,5,13,2.6,4.7
臺北市內湖區新湖國民小學附設幼兒園,公立,臺北市,內湖區,臺北市內湖區民權東路六段138號,121.5885493,25.0682258,196,105學年度,基礎評鑑,全數指標通過基礎評鑑,44,92,2.090909091,3.4
臺北市內湖區潭美國民小學附設幼兒園,公立,臺北市,內湖區,臺北市內湖區行善路179號,121.5810973,25.0591539,46,105學年度,基礎評鑑,全數指標通過基礎評鑑,6,5,0.833333333,3
臺北市內湖區東湖國民小學附設幼兒園,公立,臺北市,內湖區,臺北市內湖區東湖路115號,121.6161245,25.0692279,196,105學年度,基礎評鑑,全數指標通過基礎評鑑,16,69,4.3125,5
臺北市內湖區內湖國民小學附設幼兒園,公立,臺北市,內湖區,臺北市內湖區內湖路二段41號1樓,121.5802502,25.0792037,120,105學年度,基礎評鑑,全數指標通過基礎評鑑,15,32,2.133333333,4
臺北市內湖區文湖國民小學附設幼兒園,公立,臺北市,內湖區,臺北市內湖區文湖街15號,121.5603611,25.0861028,182,105學年度,基礎評鑑,全數指標通過基礎評鑑,12,50,4.166666667,3.9
臺北市內湖區麗湖國民小學附設幼兒園,公立,臺北市,內湖區,臺北市內湖區金湖路363巷8號,121.601146,25.072992,166,105學年度,基礎評鑑,全數指標通過基礎評鑑,11,55,5,3.9
臺北市內湖區大湖國民小學附設幼兒園,公立,臺北市,內湖區,臺北市內湖區大湖山莊街170號,121.6011865,25.0876445,152,105學年度,基礎評鑑,全數指標通過基礎評鑑,29,107,3.689655172,4.6
臺北市內湖區明湖國民小學附設幼兒園,公立,臺北市,內湖區,臺北市內湖區康寧路三段105號1樓,121.6106806,25.0711096,90,105學年度,基礎評鑑,全數指標通過基礎評鑑,8,34,4.25,4.3
臺北市內湖區碧湖國民小學附設幼兒園,公立,臺北市,內湖區,臺北市內湖區金龍路100號,121.5914025,25.0841216,152,105學年度,基礎評鑑,全數指標通過基礎評鑑,23,44,1.913043478,5
臺北市立內湖幼兒園,公立,臺北市,內湖區,臺北市內湖區陽光街265巷9號,121.5806569,25.073664,212,105學年度,基礎評鑑,全數指標通過基礎評鑑,15,54,3.6,2.7
臺北市私立櫻之圓蒙特梭利幼兒園,私立,臺北市,內湖區,臺北市內湖區環山路1段24巷10號1,121.5649832,25.0844002,40,107學年度,基礎評鑑,全數指標通過基礎評鑑,13,33,2.538461538,4.6
臺北市私立快樂幼兒園,私立,臺北市,內湖區,臺北市內湖區民權東路6段280巷8號1,121.605643,25.071931,48,103學年度,基礎評鑑,全數指標通過基礎評鑑,12,38,3.166666667,4.6
臺北市私立東湖幼兒園,私立,臺北市,內湖區,臺北市內湖區康樂街85巷33、35、37號1樓,121.619741,25.069524,60,105學年度,基礎評鑑,全數指標通過基礎評鑑,9,35,3.888888889,3
臺北市私立幼新幼兒園,私立,臺北市,內湖區,臺北市內湖區成功路二段312巷46、48號1樓,121.588667,25.067174,90,105學年度,追蹤評鑑,全數指標通過追蹤評鑑,20,78,3.9,4.5
臺北市私立文心幼兒園,私立,臺北市,內湖區,臺北市內湖區星雲街68巷8、10、12號1樓,121.592819,25.078668,120,107學年度,基礎評鑑,全數指標通過基礎評鑑,20,64,3.2,5
臺北市私立美敦幼兒園,私立,臺北市,內湖區,臺北市內湖區內湖路一段591巷11弄9、11號1樓,121.5735631,25.080808,76,104學年度,基礎評鑑,全數指標通過基礎評鑑,3,14,4.666666667,3.8
臺北市私立塞凡提甜心幼兒園,私立,臺北市,內湖區,臺北市內湖區康寧路3段189巷42號1樓、189巷80弄36號1樓,121.61319,25.071202,40,104學年度,基礎評鑑,全數指標通過基礎評鑑,16,80,5,4.1
臺北市私立諾貝爾幼兒園,私立,臺北市,內湖區,臺北市內湖區金湖路415號1樓及417號1樓,121.604724,25.0732904,62,105學年度,基礎評鑑,全數指標通過基礎評鑑,38,122,3.210526316,4.6
臺北市私立潭美幼兒園,私立,臺北市,內湖區,臺北市內湖區東湖路160巷10弄20、22、24號,121.617068,25.067609,52,102學年度,追蹤評鑑,全數指標通過追蹤評鑑,17,61,3.588235294,4.3
臺北市私立明昶幼兒園,私立,臺北市,內湖區,臺北市內湖區康寧路3段99巷10弄6號1樓及2樓,121.610684,25.072367,34,103學年度,追蹤評鑑,全數指標通過追蹤評鑑,2,10,5,4.1
臺北市私立民祥幼兒園,私立,臺北市,內湖區,臺北市內湖區麗山街338巷5、7號1樓,121.5732552,25.0824896,60,107學年度,基礎評鑑,全數指標通過基礎評鑑,35,151,4.314285714,3.8
臺北市私立康大幼兒園,私立,臺北市,內湖區,臺北市內湖區康樂街116、116-1、116-2號2樓,121.6190127,25.0710396,45,105學年度,基礎評鑑,全數指標通過基礎評鑑,38,160,4.210526316,4.6
康軒文教事業股份有限公司附設臺北市私立員工子女幼兒園,私立,臺北市,內湖區,臺北市內湖區文德路66巷99號1至3樓,121.5489164,24.9751154,293,103學年度,基礎評鑑,全數指標通過基礎評鑑,3,15,5,4.3
臺北市私立國際蒙特梭利內湖幼兒園,私立,臺北市,內湖區,臺北市內湖區大湖街166巷18號1樓至2樓,121.6012898,25.0835971,40,103學年度,無評鑑分類,全數指標改善完畢,18,88,4.888888889,4.3
臺北市私立森林學館幼兒園,私立,臺北市,內湖區,臺北市內湖區陽光街65號1樓,121.5865092,25.0760786,38,103學年度,基礎評鑑,全數指標通過基礎評鑑,37,167,4.513513514,3.8
臺北市私立陽光森林麗湖幼兒園,私立,臺北市,內湖區,臺北市內湖區內湖路二段103巷48號1樓,121.5806753,25.0819705,21,102學年度,基礎評鑑,全數指標通過基礎評鑑,6,19,3.166666667,5
臺北市私立惠登幼兒園,私立,臺北市,內湖區,臺北市內湖區康寧路三段189巷52號1樓,121.613056,25.071456,23,102學年度,追蹤評鑑,全數指標通過追蹤評鑑,42,197,4.69047619,4.3
臺北市私立廣教幼兒園,私立,臺北市,內湖區,臺北市內湖區成功路三段187巷35弄2號1樓及4號1樓,121.592038,25.079266,40,107學年度,基礎評鑑,部分指標通過基礎評鑑,44,172,3.909090909,0
臺北市私立保進幼兒園,私立,臺北市,內湖區,臺北市內湖區康樂街61巷15弄1號1、2樓,121.6196578,25.0687935,160,107學年度,基礎評鑑,部分指標通過基礎評鑑,33,139,4.212121212,5
臺北市私立何嘉仁新湖幼兒園,私立,臺北市,內湖區,臺北市內湖區民權東路6段196號,121.5951367,25.0684183,310,104學年度,基礎評鑑,全數指標通過基礎評鑑,31,121,3.903225806,4
臺北市私立柏克立幼兒園,私立,臺北市,內湖區,臺北市內湖區金湖路363巷45號1樓至3樓,121.60098,25.0732901,100,104學年度,基礎評鑑,全數指標通過基礎評鑑,3,10,3.333333333,3.8
臺北市私立華泰幼兒園,私立,臺北市,內湖區,臺北市內湖區大湖山莊街21巷2號,121.602448,25.0845639,60,107學年度,基礎評鑑,全數指標通過基礎評鑑,15,66,4.4,4
臺北市私立立湖幼兒園,私立,臺北市,內湖區,臺北市內湖區金龍路222巷1弄1號,121.586171,25.0880099,60,107學年度,基礎評鑑,全數指標通過基礎評鑑,28,109,3.892857143,5
臺北市私立心惠幼兒園,私立,臺北市,內湖區,臺北市內湖區麗山街62巷18弄2、4、6號1樓,121.578849,25.081315,120,102學年度,基礎評鑑,全數指標通過基礎評鑑,36,115,3.194444444,4
臺北市私立奧斯福爾幼兒園,私立,臺北市,內湖區,臺北市內湖區康寧路三段16巷53號1樓至2樓,121.608427,25.071406,180,107學年度,基礎評鑑,部分指標通過基礎評鑑,15,59,3.933333333,2.8
臺北市私立喬治亞幼兒園,私立,臺北市,內湖區,臺北市內湖區內湖路二段334之1號,121.5889563,25.0814258,120,105學年度,基礎評鑑,全數指標通過基礎評鑑,4,15,3.75,5
臺北市私立幼欣幼兒園,私立,臺北市,內湖區,臺北市內湖區成功路二段312巷66、68號1樓,121.5888033,25.0667859,30,105學年度,追蹤評鑑,全數指標通過追蹤評鑑,13,38,2.923076923,4.2
臺北市私立咪咪幼兒園,私立,臺北市,內湖區,臺北市內湖區文德路66巷69弄30號1樓,121.582794,25.076231,47,104學年度,基礎評鑑,全數指標通過基礎評鑑,8,15,1.875,4.7
臺北市私立小百合蒙特梭利幼兒園,私立,臺北市,內湖區,臺北市內湖區星雲街37號1樓,121.5915077,25.0786666,30,105學年度,基礎評鑑,全數指標通過基礎評鑑,44,207,4.704545455,4.1
臺北市私立聖育幼兒園,私立,臺北市,內湖區,臺北市內湖區內湖路三段60巷9、11號1樓至2樓,121.5923245,25.0870179,56,107學年度,基礎評鑑,全數指標通過基礎評鑑,42,206,4.904761905,4.7
臺北市私立大湖寶貝幼兒園,私立,臺北市,內湖區,臺北市內湖區大湖街166巷10號1樓至2樓,121.6010269,25.0840299,37,103學年度,基礎評鑑,全數指標通過基礎評鑑,14,41,2.928571429,3
臺北市私立夢想幼兒園,私立,臺北市,內湖區,臺北市內湖區文德路210巷8之3號2樓,121.5841816,25.0779794,40,104學年度,基礎評鑑,全數指標通過基礎評鑑,14,46,3.285714286,5
臺北市私立勁寶兒文德幼兒園,私立,臺北市,內湖區,臺北市內湖區內湖路二段130號1樓,121.582355,25.079443,30,107學年度,基礎評鑑,全數指標通過基礎評鑑,35,133,3.8,4
臺北市私立聖喬治幼兒園,私立,臺北市,內湖區,臺北市內湖區民權東路六段296巷40、42、42-1號1樓及42號2樓,121.6073527,25.0715482,150,107學年度,基礎評鑑,全數指標通過基礎評鑑,44,145,3.295454545,5
臺北市私立巧可麗查理布朗幼兒園,私立,臺北市,內湖區,臺北市內湖區成功路三段174巷10號2樓,121.5904058,25.0811297,35,107學年度,基礎評鑑,全數指標通過基礎評鑑,24,115,4.791666667,3.4
臺北市私立小小百合蒙特梭利幼兒園,私立,臺北市,內湖區,臺北市內湖區星雲街38號1樓,121.591503,25.0783846,29,102學年度,追蹤評鑑,全數指標通過追蹤評鑑,3,8,2.666666667,3.6
臺北市私立小瓢蟲幼兒園,私立,臺北市,內湖區,臺北市內湖區星雲街35號1樓,121.5915165,25.0787337,34,107學年度,基礎評鑑,全數指標通過基礎評鑑,50,165,3.3,5
臺北市私立內湖科見幼兒園,私立,臺北市,內湖區,臺北市內湖區成功路五段460號2樓及2樓之1,121.606344,25.073735,110,107學年度,基礎評鑑,部分指標通過基礎評鑑,31,143,4.612903226,5
臺北市私立恩貝亞幼兒園,私立,臺北市,內湖區,臺北市內湖區金湖路179號1樓至2樓,121.5991892,25.0792397,80,102學年度,基礎評鑑,全數指標通過基礎評鑑,39,191,4.897435897,4.3
臺北市私立小荳荳幼兒園,私立,臺北市,內湖區,臺北市內湖區民權東路六段172號1至3樓,121.5915585,25.0682799,51,102學年度,追蹤評鑑,全數指標通過追蹤評鑑,42,139,3.30952381,4.4
臺北市私立家田幼兒園,私立,臺北市,內湖區,臺北市內湖區大湖街158巷2之3號1、2樓及2樓之1,121.599903,25.0841477,40,105學年度,基礎評鑑,全數指標通過基礎評鑑,45,135,3,4.1
臺北市私立嘉霙幼兒園,私立,臺北市,內湖區,臺北市內湖區陽光街116號1樓,121.584078,25.075149,23,105學年度,基礎評鑑,全數指標通過基礎評鑑,47,165,3.510638298,4.2
臺北市私立麻雀素食幼兒園,私立,臺北市,內湖區,臺北市內湖區康樂街141之2號1樓,121.6198844,25.0744235,18,103學年度,基礎評鑑,全數指標通過基礎評鑑,13,65,5,4
臺北市私立塞凡提幼兒園,私立,臺北市,內湖區,臺北市內湖區民權東路六段296巷31弄4號1樓,121.6062978,25.0717571,19,107學年度,基礎評鑑,全數指標通過基礎評鑑,40,100,2.5,4.3
臺北市私立凱菲林幼兒園,私立,臺北市,內湖區,臺北市內湖區康寧路三段54之5號2樓,121.6095035,25.0714298,40,102學年度,基礎評鑑,全數指標通過基礎評鑑,45,212,4.711111111,4.3
臺北市私立卡爾維德幼兒園,私立,臺北市,內湖區,臺北市內湖區康寧路三段16巷35號1、2樓及33號2樓,121.607683,25.07192,80,107學年度,基礎評鑑,部分指標通過基礎評鑑,15,75,5,4.1
臺北市私立多元智慧幼兒園,私立,臺北市,內湖區,臺北市內湖區文德路90巷39號1樓,121.5829347,25.0771355,151,107學年度,基礎評鑑,全數指標通過基礎評鑑,23,115,5,4.3
臺北市私立華泰大湖幼兒園,私立,臺北市,內湖區,臺北市內湖區大湖山莊街21巷2號2樓,121.602448,25.0845639,53,107學年度,基礎評鑑,部分指標通過基礎評鑑,27,103,3.814814815,4
臺北市私立卡爾維德蒙特梭利幼兒園,私立,臺北市,內湖區,臺北市內湖區東湖路113巷50號1樓,121.6159965,25.0706183,40,103學年度,基礎評鑑,全數指標通過基礎評鑑,19,95,5,4.3
臺北市私立優幼園幼兒園,私立,臺北市,內湖區,臺北市內湖區成功路四段30巷11號1樓,121.5915184,25.0820255,19,105學年度,基礎評鑑,全數指標通過基礎評鑑,21,63,3,4.8
臺北市私立融恩幼兒園,私立,臺北市,內湖區,臺北市內湖區金湖路16之11號1樓,121.596189,25.083452,22,105學年度,追蹤評鑑,全數指標通過追蹤評鑑,42,139,3.30952381,4
臺北市私立來來幼兒園,私立,臺北市,內湖區,臺北市內湖區民權東路六段280巷50號1樓,121.6076391,25.0707334,48,107學年度,基礎評鑑,全數指標通過基礎評鑑,7,35,5,4.3
臺北市私立柏克萊幼兒園,私立,臺北市,內湖區,臺北市內湖區金湖路363巷17號1樓至2樓及19號1樓,121.6016791,25.0734501,40,105學年度,基礎評鑑,全數指標通過基礎評鑑,34,109,3.205882353,4.4
臺北市私立聖安幼兒園,私立,臺北市,內湖區,臺北市內湖區民權東路六段296巷69號及75號1樓,121.6077961,25.0708366,40,107學年度,基礎評鑑,全數指標通過基礎評鑑,16,43,2.6875,4.1
臺北市私立山谷小百合蒙特梭利幼兒園,私立,臺北市,內湖區,臺北市內湖區康寧路三段189巷56及58號1樓,121.6129284,25.0716762,32,103學年度,基礎評鑑,全數指標通過基礎評鑑,8,28,3.5,4.5
恕德學校財團法人附設臺北市私立恕德幼兒園,私立,臺北市,內湖區,臺北市內湖區內湖路一段353號,121.5692198,25.0826871,120,104學年度,追蹤評鑑,全數指標通過追蹤評鑑,7,11,1.571428571,4.2
臺北市私立華盛頓幼兒園,私立,臺北市,內湖區,臺北市內湖區瑞光路271號1樓至2樓,121.5769649,25.0752771,90,105學年度,基礎評鑑,全數指標通過基礎評鑑,33,142,4.303030303,3.2
臺北市私立英格幼兒園,私立,臺北市,內湖區,臺北市內湖區民權東路六段180巷23、25、29、31號1、2、3樓,121.5928244,25.0680222,211,105學年度,基礎評鑑,全數指標通過基礎評鑑,25,75,3,5
遊戲橘子數位科技股份有限公司附設臺北市私立員工子女幼橘園幼兒園,私立,臺北市,內湖區,臺北市內湖區港墘路221巷33號1樓,121.5747692,25.073838,75,107學年度,基礎評鑑,全數指標通過基礎評鑑,7,35,5,4.5
臺北市私立小綠山森林幼兒園,私立,臺北市,內湖區,臺北市內湖區成功路五段臨37號,121.606912,25.078001,65,無評鑑資料,無評鑑資料,無評鑑資料,27,135,5,5
臺北市私立諾貝爾金湖幼兒園,私立,臺北市,內湖區,臺北市內湖區金湖路419號2樓,121.604724,25.0732904,30,無評鑑資料,無評鑑資料,無評鑑資料,45,194,4.311111111,4.8
臺北市私立諾貝爾內湖幼兒園,私立,臺北市,內湖區,臺北市內湖區金湖路417號2樓,121.604724,25.0732904,30,無評鑑資料,無評鑑資料,無評鑑資料,38,61,1.605263158,5
臺北市私立華泰種子幼兒園,私立,臺北市,內湖區,臺北市內湖區大湖山莊街97號1、2樓,121.602448,25.0845639,51,無評鑑資料,無評鑑資料,無評鑑資料,20,62,3.1,3.5
臺北市私立湖畔小百合蒙特梭利幼兒園,私立,臺北市,內湖區,臺北市內湖區大湖山莊街85號,121.6019665,25.0850593,50,無評鑑資料,無評鑑資料,無評鑑資料,31,78,2.516129032,4.5
臺北市私立塞凡提凱旋幼兒園,私立,臺北市,內湖區,臺北市內湖區民權東路六段296巷61號及61之2號1至2樓,121.6062978,25.0717571,30,無評鑑資料,無評鑑資料,無評鑑資料,9,40,4.444444444,4.1
臺北市璽典職場互助教保服務中心,私立,臺北市,內湖區,臺北市內湖區石潭路65號2樓,121.5868665,25.0627704,31,無評鑑資料,無評鑑資料,無評鑑資料,10,36,3.6,4.2
臺北市私立卡爾蒙特梭利幼兒園,私立,臺北市,內湖區,臺北市內湖區東湖路113巷50之1號1樓,121.6159965,25.0706183,30,無評鑑資料,無評鑑資料,無評鑑資料,20,78,3.9,5
財團法人福智文教基金會附設臺北市私立妙善非營利幼兒園,非營利,臺北市,內湖區,臺北市內湖區行善路25巷13號1樓,121.5767542,25.0562454,89,103學年度,基礎評鑑,全數指標通過基礎評鑑,4,18,4.5,4
財團法人福智文教基金會附設臺北市私立妙善非營利幼兒園,非營利,臺北市,內湖區,臺北市內湖區行善路25巷11號1、2樓,121.5767542,25.0562454,60,無評鑑資料,無評鑑資料,無評鑑資料,50,235,4.7,5
臺北市新東湖非營利幼兒園,非營利,臺北市,內湖區,臺北市內湖區康樂街110巷16弄22號1,121.618323,25.0702913,150,105學年度,基礎評鑑,全數指標通過基礎評鑑,29,110,3.793103448,4.1
社團法人臺北市幼托協會附設臺北市私立星雲非營利幼兒園,非營利,臺北市,內湖區,臺北市內湖區星雲街161巷3號2樓,121.596101,25.0811491,85,103學年度,基礎評鑑,全數指標通過基礎評鑑,49,162,3.306122449,4.3
財團法人幼兒教育基金會附設臺北市私立康寧非營利幼兒園,非營利,臺北市,內湖區,臺北市內湖區康寧路三段189巷93弄18號1樓,121.5381848,25.0411649,80,104學年度,基礎評鑑,全數指標通過基礎評鑑,42,176,4.19047619,3.8
臺北市三民亦禮非營利幼兒園,非營利,臺北市,內湖區,臺北市內湖區民權東路六段45號,121.5864073,25.069154,90,無評鑑資料,無評鑑資料,無評鑑資料,17,60,3.529411765,5
臺北市西中非營利幼兒園,非營利,臺北市,內湖區,臺北市內湖區環山路一段27號,121.521475,25.088437,152,無評鑑資料,無評鑑資料,無評鑑資料,14,64,4.571428571,4.9
臺北市南港區東新國民小學附設幼兒園,公立,臺北市,南港區,臺北市南港區興南街62號,121.60211,25.056042,90,107學年度,基礎評鑑,全數指標通過基礎評鑑,17,85,5,4.7
臺北市南港區修德國民小學附設幼兒園,公立,臺北市,南港區,臺北市南港區東新街118巷86號,121.5896272,25.0454795,166,107學年度,基礎評鑑,全數指標通過基礎評鑑,28,120,4.285714286,4.7
臺北市南港區南港國民小學附設幼兒園,公立,臺北市,南港區,臺北市南港區惠民街67號,121.6105787,25.0571037,106,107學年度,基礎評鑑,全數指標通過基礎評鑑,19,68,3.578947368,4
臺北市南港區玉成國民小學附設幼兒園,公立,臺北市,南港區,臺北市南港區向陽路31號,121.594745,25.053584,152,107學年度,基礎評鑑,全數指標通過基礎評鑑,7,32,4.571428571,2.7
臺北市南港區成德國民小學附設幼兒園,公立,臺北市,南港區,臺北市南港區東新街65號,121.5868725,25.0470902,166,107學年度,基礎評鑑,全數指標通過基礎評鑑,19,53,2.789473684,5
臺北市立南港幼兒園,公立,臺北市,南港區,臺北市南港區重陽路199巷28號,121.5988385,25.0578101,150,107學年度,基礎評鑑,全數指標通過基礎評鑑,37,115,3.108108108,3.7
臺北市南港區舊莊國民小學附設幼兒園,公立,臺北市,南港區,臺北市南港區舊莊街1段100號,121.6195187,25.040298,166,107學年度,基礎評鑑,全數指標通過基礎評鑑,2,6,3,2.9
臺北市私立大方凌雲幼兒園,私立,臺北市,南港區,臺北市南港區研究院路三段2巷2、6、8號1樓,121.6165087,25.0361918,62,107學年度,基礎評鑑,全數指標通過基礎評鑑,18,85,4.722222222,4.7
臺北市私立新莒光幼兒園,私立,臺北市,南港區,臺北市南港區研究院路2段35巷13號1樓,121.61599,25.046389,41,104學年度,基礎評鑑,全數指標通過基礎評鑑,26,49,1.884615385,5
臺北市私立南光幼兒園,私立,臺北市,南港區,臺北市南港區研究院路二段61巷2弄41號及43號1樓,121.618686,25.0434689,92,102學年度,基礎評鑑,全數指標通過基礎評鑑,16,37,2.3125,3.7
臺北市私立莒光幼兒園,私立,臺北市,南港區,臺北市南港區舊莊街一段145巷6弄31號,121.6219872,25.0395896,120,105學年度,基礎評鑑,全數指標通過基礎評鑑,16,64,4,4
臺北市私立樹德幼兒園,私立,臺北市,南港區,臺北市南港區東新街80巷11弄2號、4號,121.5874626,25.0455361,90,104學年度,追蹤評鑑,全數指標通過追蹤評鑑,42,210,5,4.5
臺北市私立何嘉仁南港幼兒園,私立,臺北市,南港區,臺北市南港區興華路18,121.6059207,25.0547804,46,107學年度,基礎評鑑,全數指標通過基礎評鑑,12,35,2.916666667,4.9
臺北市私立龍華幼兒園,私立,臺北市,南港區,臺北市南港區玉成街247號1樓至4樓、247-1號1樓,121.5858579,25.042952,246,103學年度,基礎評鑑,全數指標通過基礎評鑑,22,106,4.818181818,4.8
臺北市私立大大樹幼兒園,私立,臺北市,南港區,臺北市南港區玉成街46及48號1樓,121.581417,25.048309,61,102學年度,基礎評鑑,全數指標通過基礎評鑑,20,92,4.6,4
財團法人國光慈善事業基金會附設臺北市私立三軍幼兒園,私立,臺北市,南港區,臺北市南港區南港路二段146號1樓,121.600503,25.053782,300,104學年度,基礎評鑑,全數指標通過基礎評鑑,35,140,4,3.8
世平興業股份有限公司附設臺北市私立員工子女幼兒園,私立,臺北市,南港區,臺北市南港區成功路一段70、72、74號1樓,121.592444,25.056723,140,107學年度,基礎評鑑,全數指標通過基礎評鑑,16,64,4,4
臺北市私立惠群幼兒園,私立,臺北市,南港區,臺北市南港區合順街8巷5弄5號1樓,121.618697,25.041933,16,102學年度,基礎評鑑,全數指標通過基礎評鑑,33,86,2.606060606,4.2
臺北市私立大華幼兒園,私立,臺北市,南港區,臺北市南港區忠孝東路6段212巷4弄5、7及9號1樓,121.5872705,25.0481001,120,104學年度,追蹤評鑑,全數指標通過追蹤評鑑,43,129,3,4
臺北市私立海格斯大千幼兒園,私立,臺北市,南港區,臺北市南港區福德街310巷30、32及34號1樓,121.58735,25.0404775,120,105學年度,基礎評鑑,全數指標通過基礎評鑑,31,143,4.612903226,4.7
臺北市私立欣苗幼兒園,私立,臺北市,南港區,臺北市南港區研究院路2段12巷58弄9號,121.6139219,25.0469614,120,102學年度,基礎評鑑,全數指標通過基礎評鑑,18,90,5,4.3
臺北市私立傑生寶華國際幼兒園,私立,臺北市,南港區,臺北市南港區成福路207巷7、9號1樓及211巷4號1樓,121.5894476,25.0399329,120,103學年度,基礎評鑑,全數指標通過基礎評鑑,27,116,4.296296296,5
臺北市私立東美幼兒園,私立,臺北市,南港區,臺北市南港區興南街52巷29、29-1、31、31-1號,121.604396,25.057106,90,103學年度,基礎評鑑,全數指標通過基礎評鑑,23,85,3.695652174,5
中央研究院附設臺北市私立幼兒園,私立,臺北市,南港區,臺北市南港區研究院路2段12巷75號1樓,121.6131561,25.0476687,120,107學年度,基礎評鑑,全數指標通過基礎評鑑,43,103,2.395348837,5
臺北市私立達芬奇多元智能幼兒園,私立,臺北市,南港區,臺北市南港區興華路32號1至4樓,121.6058016,25.0551834,40,107學年度,基礎評鑑,全數指標通過基礎評鑑,27,70,2.592592593,3.5
臺北市私立吉的堡小騎士幼兒園,私立,臺北市,南港區,臺北市南港區成福路183號2樓,121.588615,25.040908,176,105學年度,基礎評鑑,全數指標通過基礎評鑑,21,78,3.714285714,3.4
臺北市立南港高級中學教師會附設臺北市私立員工子女幼兒園,私立,臺北市,南港區,臺北市南港區向陽路21號1樓,121.595026,25.052412,40,103學年度,基礎評鑑,全數指標通過基礎評鑑,4,8,2,3
臺北市私立甘霖幼兒園,私立,臺北市,南港區,臺北市南港區南港路二段30、32號3樓至4樓及34、34之1號1樓至4樓,121.6052456,25.0542888,95,107學年度,基礎評鑑,全數指標通過基礎評鑑,47,193,4.106382979,1.1
臺北市私立欣苗寶貝幼兒園,私立,臺北市,南港區,臺北市南港區研究院路二段34巷15號1樓,121.6139219,25.0469614,17,107學年度,基礎評鑑,全數指標通過基礎評鑑,11,28,2.545454545,4.1
臺北市私立道生南港幼兒園,私立,臺北市,南港區,臺北市南港區重陽路187巷1號1樓,121.5990336,25.0568013,70,105學年度,追蹤評鑑,全數指標通過追蹤評鑑,39,187,4.794871795,3.1
臺北市私立咪咪陳幼兒園,私立,臺北市,南港區,臺北市南港區重陽路551號1樓,121.6140619,25.0631301,30,無評鑑資料,無評鑑資料,無評鑑資料,23,85,3.695652174,2.6
臺北市港福非營利幼兒園,非營利,臺北市,南港區,臺北市南港區福德街373巷43號1樓,121.5915412,25.0390676,136,104學年度,基礎評鑑,全數指標通過基礎評鑑,8,40,5,3.8
財團法人三之三生命教育基金會附設臺北市私立胡適非營利幼兒園,非營利,臺北市,南港區,臺北市南港區舊莊街一段1號1樓,121.618015,25.0424755,90,無評鑑資料,無評鑑資料,無評鑑資料,4,13,3.25,2.4
臺北市向陽非營利幼兒園,非營利,臺北市,南港區,臺北市南港區向陽路31號,121.5381848,25.0411649,106,無評鑑資料,無評鑑資料,無評鑑資料,3,12,4,5
臺北市文山區景美國民小學附設幼兒園,公立,臺北市,文山區,臺北市文山區景文街108號,121.5407883,24.9895171,120,107學年度,基礎評鑑,全數指標通過基礎評鑑,41,168,4.097560976,2.8
臺北市文山區溪口國民小學附設幼兒園,公立,臺北市,文山區,臺北市文山區景福街225號,121.5387574,24.99413,136,107學年度,基礎評鑑,全數指標通過基礎評鑑,10,29,2.9,2.8
臺北市文山區志清國民小學附設幼兒園,公立,臺北市,文山區,臺北市文山區景福街21巷5號,121.5388826,24.9985863,90,107學年度,基礎評鑑,全數指標通過基礎評鑑,11,55,5,1.2
臺北市文山區武功國民小學附設幼兒園,公立,臺北市,文山區,臺北市文山區興隆路一段68號,121.5404927,25.0038887,120,107學年度,基礎評鑑,全數指標通過基礎評鑑,44,211,4.795454545,2.9
臺北市文山區興德國民小學附設幼兒園,公立,臺北市,文山區,臺北市文山區興隆路2段235號,121.5508457,25.0016269,30,107學年度,基礎評鑑,全數指標通過基礎評鑑,43,215,5,2.7
臺北市文山區興華國民小學附設幼兒園,公立,臺北市,文山區,臺北市文山區興隆路3段125巷6號,121.5590765,24.9999707,106,107學年度,基礎評鑑,全數指標通過基礎評鑑,32,150,4.6875,3.4
臺北市文山區景興國民小學附設幼兒園,公立,臺北市,文山區,臺北市文山區景華街150巷21號,121.5484713,24.9962181,136,107學年度,基礎評鑑,全數指標通過基礎評鑑,5,22,4.4,4.8
臺北市文山區興隆國民小學附設幼兒園,公立,臺北市,文山區,臺北市文山區福興路2號,121.5519018,25.002501,166,107學年度,基礎評鑑,全數指標通過基礎評鑑,35,175,5,2.8
臺北市文山區明道國民小學附設幼兒園,公立,臺北市,文山區,臺北市文山區木柵路2段138巷61號,121.5625578,24.9873333,76,107學年度,基礎評鑑,全數指標通過基礎評鑑,27,111,4.111111111,4.1
臺北市文山區木柵國民小學附設幼兒園,公立,臺北市,文山區,臺北市文山區木柵路3段191號,121.5701489,24.9902695,120,107學年度,基礎評鑑,全數指標通過基礎評鑑,10,39,3.9,4.7
臺北市博嘉實驗國民小學附設幼兒園,公立,臺北市,文山區,臺北市文山區木柵路4段159巷14號之1,121.5758738,25.0017834,90,107學年度,基礎評鑑,全數指標通過基礎評鑑,26,122,4.692307692,3.9
臺北市文山區指南國民小學附設幼兒園,公立,臺北市,文山區,臺北市文山區指南路3段38巷5之2號,121.583622,24.976225,30,107學年度,基礎評鑑,部分指標通過基礎評鑑,41,201,4.902439024,3.8
臺北市文山區萬芳國民小學附設幼兒園,公立,臺北市,文山區,臺北市文山區萬和街1號,121.5672899,25.0007508,196,107學年度,基礎評鑑,全數指標通過基礎評鑑,32,134,4.1875,2.5
臺北市文山區萬興國民小學附設幼兒園,公立,臺北市,文山區,臺北市文山區秀明路2段114號,121.5764222,24.9898808,60,107學年度,基礎評鑑,全數指標通過基礎評鑑,32,61,1.90625,4.7
臺北市文山區力行國民小學附設幼兒園,公立,臺北市,文山區,臺北市文山區木新路三段155巷7號,121.5611466,24.9809649,150,107學年度,基礎評鑑,全數指標通過基礎評鑑,34,160,4.705882353,3
臺北市文山區萬福國民小學附設幼兒園,公立,臺北市,文山區,臺北市文山區羅斯福路5段170巷32號,121.536755,25.004776,136,107學年度,基礎評鑑,全數指標通過基礎評鑑,13,33,2.538461538,4
臺北市文山區辛亥國民小學附設幼兒園,公立,臺北市,文山區,臺北市文山區辛亥路4段103號,121.5591405,25.0064439,76,107學年度,基礎評鑑,全數指標通過基礎評鑑,43,146,3.395348837,3.5
臺北市立文山幼兒園,公立,臺北市,文山區,臺北市文山區興隆路四段105巷1號,121.5607685,24.9877397,240,107學年度,基礎評鑑,全數指標通過基礎評鑑,40,112,2.8,4.2
國立政治大學附設實驗國民小學附設幼兒園,公立,臺北市,文山區,臺北市文山區指南路二段64號,121.577817,24.986619,90,107學年度,基礎評鑑,全數指標通過基礎評鑑,40,100,2.5,5
臺北市立文山特殊教育學校幼兒部,公立,臺北市,文山區,臺北市文山區秀明路1段169號,121.567807,24.99154,0,無評鑑資料,無評鑑資料,無評鑑資料,40,72,1.8,2.3
臺北市私立清華幼兒園,私立,臺北市,文山區,臺北市文山區興隆路三段36巷9弄2號1樓,121.555327,24.999819,39,107學年度,基礎評鑑,全數指標通過基礎評鑑,48,163,3.395833333,4.2
臺北市私立巨星幼兒園,私立,臺北市,文山區,"臺北市文山區秀明路1段68,70,72號1樓",121.5658518,24.9900042,39,103學年度,無評鑑分類,全數指標改善完畢,5,9,1.8,4.2
臺北市私立幼林幼兒園,私立,臺北市,文山區,臺北市文山區景福街31號1樓,121.537822,24.998843,37,107學年度,基礎評鑑,全數指標通過基礎評鑑,22,66,3,2.5
臺北市私立文山仁和幼兒園,私立,臺北市,文山區,臺北市文山區忠順街一段10巷11,121.5585915,24.9831695,133,105學年度,基礎評鑑,全數指標通過基礎評鑑,41,123,3,4.8
臺北市私立家家幼兒園,私立,臺北市,文山區,臺北市文山區興隆路三段二0七巷九弄9,121.561074,24.9954329,90,107學年度,基礎評鑑,部分指標通過基礎評鑑,38,167,4.394736842,3.2
財團法人天主教會臺北教區附設臺北市私立若石幼兒園,私立,臺北市,文山區,臺北市文山區羅斯福路五段51號1、2、3樓,121.5391859,25.0069129,270,104學年度,基礎評鑑,全數指標通過基礎評鑑,7,21,3,4.4
臺北市私立寶馨幼兒園,私立,臺北市,文山區,臺北市文山區溪口街85巷7弄6號1樓,121.538466,24.994792,17,105學年度,追蹤評鑑,全數指標通過追蹤評鑑,46,202,4.391304348,3.8
臺北市私立何嘉仁興隆幼兒園,私立,臺北市,文山區,臺北市文山區興隆路二段252號2樓,121.554242,25.000676,150,102學年度,基礎評鑑,全數指標通過基礎評鑑,14,18,1.285714286,2.9
財團法人台北市中華基督教青年會附設臺北市私立文山幼兒園,私立,臺北市,文山區,臺北市文山區和興路2號1樓至2樓,121.5459098,24.9863333,228,102學年度,基礎評鑑,全數指標通過基礎評鑑,10,50,5,3.7
臺北市私立荳荳幼兒園,私立,臺北市,文山區,臺北市文山區木柵路一段59巷2號1樓,121.546075,24.987096,33,107學年度,基礎評鑑,全數指標通過基礎評鑑,5,17,3.4,2.3
臺北市私立比利馬幼兒園,私立,臺北市,文山區,臺北市文山區木柵路一段87號1樓,121.547095,24.9871216,24,104學年度,追蹤評鑑,全數指標通過追蹤評鑑,40,140,3.5,5
臺北市私立吉太幼兒園,私立,臺北市,文山區,臺北市文山區木新路三段45巷7弄8、10、12號1樓,121.5647619,24.981998,60,104學年度,基礎評鑑,全數指標通過基礎評鑑,29,110,3.793103448,2.8
臺北市私立千千幼兒園,私立,臺北市,文山區,臺北市文山區木柵路三段85巷8弄5號、5-1號1樓,121.566989,24.989518,52,107學年度,基礎評鑑,全數指標通過基礎評鑑,41,172,4.195121951,2.7
臺北市私立文山懷恩幼兒園,私立,臺北市,文山區,臺北市文山區福興路63巷4弄26、28號1樓,121.549233,25.004558,90,105學年度,追蹤評鑑,全數指標通過追蹤評鑑,47,183,3.893617021,3.6
財團法人台北市華亞之聲社中華基督教便以利教會附設臺北市私立華聲幼兒園,私立,臺北市,文山區,臺北市文山區指南路2段11號1樓,121.573317,24.9884699,235,107學年度,基礎評鑑,全數指標通過基礎評鑑,18,41,2.277777778,1
臺北市私立樹人幼兒園,私立,臺北市,文山區,臺北市文山區景華街121巷17弄9號,121.5456937,24.9968238,120,104學年度,無評鑑分類,全數指標改善完畢,4,16,4,3.5
臺北市私立仁美幼兒園,私立,臺北市,文山區,臺北市文山區木柵路3段85巷14弄14號及14之1號1樓,121.566994,24.989679,90,107學年度,基礎評鑑,全數指標通過基礎評鑑,14,46,3.285714286,5
私立再興高級中學附設臺北市幼兒園,私立,臺北市,文山區,臺北市文山區木柵路二段1-6號1樓至3樓,121.5585889,24.9894206,540,102學年度,基礎評鑑,全數指標通過基礎評鑑,5,25,5,2.5
財團法人台北市中國基督教靈糧世界佈道會台北靈糧堂附設臺北市私立靈糧幼兒園,私立,臺北市,文山區,臺北市文山區萬美街2段80號1樓,121.5608957,25.00541,90,102學年度,追蹤評鑑,全數指標通過追蹤評鑑,9,35,3.888888889,3.3
財團法人台北市中華基督教景美浸信會附設臺北市私立聖愛幼兒園,私立,臺北市,文山區,臺北市文山區育英街63號,121.538754,24.992131,90,102學年度,追蹤評鑑,全數指標通過追蹤評鑑,9,32,3.555555556,2.7
臺北市私立全能幼兒園,私立,臺北市,文山區,臺北市文山區樟新街26號1樓,121.5552199,24.9789429,30,102學年度,追蹤評鑑,全數指標通過追蹤評鑑,34,122,3.588235294,1.5
臺北市私立惠生幼兒園,私立,臺北市,文山區,臺北市文山區興隆路三段207巷10弄1、3、9號,121.5610279,24.994776,90,107學年度,基礎評鑑,全數指標通過基礎評鑑,32,141,4.40625,4.9
臺北市私立書宜幼兒園,私立,臺北市,文山區,臺北市文山區羅斯福路六段150巷22號1、2樓,121.540645,24.995609,120,107學年度,基礎評鑑,全數指標通過基礎評鑑,10,20,2,3.1
靜心學校財團法人臺北市私立靜心高級中等學校附設幼兒園,私立,臺北市,文山區,臺北市文山區興隆路二段46號,121.5467337,24.9988631,410,103學年度,基礎評鑑,全數指標通過基礎評鑑,3,8,2.666666667,2.8
臺北市私立三義幼兒園,私立,臺北市,文山區,臺北市文山區木柵路三段48巷1弄16、18、20號1樓,121.5646392,24.9871941,72,102學年度,基礎評鑑,全數指標通過基礎評鑑,32,118,3.6875,4.2
臺北市私立何嘉仁文山幼兒園,私立,臺北市,文山區,臺北市文山區羅斯福路六段130號1、2樓,121.5404634,24.9970687,187,103學年度,基礎評鑑,全數指標通過基礎評鑑,20,76,3.8,2.2
臺北市私立巧可麗幼兒園,私立,臺北市,文山區,臺北市文山區景福街17、19號1樓,121.5386833,24.9991784,40,105學年度,基礎評鑑,全數指標通過基礎評鑑,32,128,4,2.7
臺北市私立幼學館幼兒園,私立,臺北市,文山區,臺北市文山區木新路2段130號1、2樓及132號2樓,121.569291,24.984441,40,107學年度,基礎評鑑,全數指標通過基礎評鑑,44,119,2.704545455,3.5
臺北市私立幼兒館幼兒園,私立,臺北市,文山區,臺北市文山區木新路2段128號1、2樓,121.5695248,24.9844004,34,105學年度,基礎評鑑,全數指標通過基礎評鑑,46,78,1.695652174,2.4
臺北市私立台北紐西蘭幼兒園,私立,臺北市,文山區,臺北市文山區政大1街19號1樓至4樓,121.580324,24.9855147,280,104學年度,追蹤評鑑,全數指標通過追蹤評鑑,10,40,4,3.6
臺北市私立中山國民小學附設幼兒園,私立,臺北市,文山區,臺北市文山區木柵路1段378巷26號,121.556328,24.9883007,270,104學年度,基礎評鑑,全數指標通過基礎評鑑,18,59,3.277777778,4
臺北市私立諾貝兒幼兒園,私立,臺北市,文山區,臺北市文山區興隆路二段203巷112及114號1樓,121.5473517,25.0033424,22,103學年度,基礎評鑑,全數指標通過基礎評鑑,32,90,2.8125,3.6
臺北市私立子愛幼兒園,私立,臺北市,文山區,臺北市文山區興隆路四段165巷3、5號1樓,121.5622613,24.984233,30,102學年度,追蹤評鑑,全數指標通過追蹤評鑑,19,95,5,5
臺北市私立和楓園幼兒園,私立,臺北市,文山區,臺北市文山區辛亥路四段252巷1號1樓,121.5545501,25.0014292,40,105學年度,基礎評鑑,全數指標通過基礎評鑑,17,73,4.294117647,4.2
臺北市私立宛的弗幼兒園,私立,臺北市,文山區,臺北市文山區忠順街二段26及26之1號1樓至2樓,121.5636249,24.9846455,40,102學年度,基礎評鑑,全數指標通過基礎評鑑,22,79,3.590909091,3.9
臺北市私立立揚幼兒園,私立,臺北市,文山區,臺北市文山區景興路258號1樓及夾層,121.5427517,24.990218,39,102學年度,追蹤評鑑,全數指標通過追蹤評鑑,9,33,3.666666667,3.8
臺北市私立阿布格小科學家幼兒園,私立,臺北市,文山區,臺北市文山區興隆路四段173及175號1樓至2樓,121.562115,24.983833,91,104學年度,追蹤評鑑,全數指標通過追蹤評鑑,44,220,5,2.4
臺北市私立快樂諾貝兒幼兒園,私立,臺北市,文山區,臺北市文山區興隆路二段222之2號2樓,121.552811,25.0013627,40,105學年度,基礎評鑑,全數指標通過基礎評鑑,27,92,3.407407407,2.6
臺北市私立南方幼兒園,私立,臺北市,文山區,臺北市文山區辛亥路四段21巷12及14號1樓,121.559163,25.009005,30,107學年度,基礎評鑑,全數指標通過基礎評鑑,3,11,3.666666667,1.9
臺北市私立頌恩幼兒園,私立,臺北市,文山區,臺北市文山區萬安街91號及93號1樓,121.5718956,25.0005084,53,104學年度,基礎評鑑,全數指標通過基礎評鑑,19,91,4.789473684,4
臺北市私立彩虹屋幼兒園,私立,臺北市,文山區,臺北市文山區辛亥路四段130巷5號1樓,121.55656,25.0048809,40,105學年度,基礎評鑑,全數指標通過基礎評鑑,42,139,3.30952381,2.9
臺北市私立勁寶兒公館幼兒園,私立,臺北市,文山區,臺北市文山區萬盛街42號1樓,121.5393084,25.0072762,23,107學年度,基礎評鑑,全數指標通過基礎評鑑,8,29,3.625,1.4
臺北市私立景美非營利幼兒園,非營利,臺北市,文山區,臺北市文山區興隆路二段160-1號1樓及2樓,121.5513956,25.0013273,255,102學年度,基礎評鑑,全數指標通過基礎評鑑,49,152,3.102040816,3.6
臺北市私立樟新非營利幼兒園,非營利,臺北市,文山區,臺北市文山區一壽街22號1樓及2樓,121.55648,24.9796342,305,105學年度,基礎評鑑,全數指標通過基礎評鑑,47,221,4.70212766,3.1
臺北市景新非營利幼兒園,非營利,臺北市,文山區,臺北市文山區景後街151號2樓,121.5418982,24.9899211,120,105學年度,基礎評鑑,全數指標通過基礎評鑑,49,245,5,4.3
社團法人台北市兒童托育協會附設臺北市私立實踐非營利幼兒園,非營利,臺北市,文山區,臺北市文山區忠順街一段4號1樓,121.5577118,24.9828391,90,無評鑑資料,無評鑑資料,無評鑑資料,3,11,3.666666667,5
臺北市文修非營利幼兒園,非營利,臺北市,文山區,臺北市文山區興隆路一段68號(武功國小內),121.5389699,25.0036904,136,無評鑑資料,無評鑑資料,無評鑑資料,36,130,3.611111111,2.9
臺北市永建非營利幼兒園,非營利,臺北市,文山區,臺北市文山區木柵路一段311巷1號,121.5549862,24.9882507,106,無評鑑資料,無評鑑資料,無評鑑資料,30,138,4.6,3.6
臺北市興福非營利幼兒園,非營利,臺北市,文山區,臺北市文山區福興路80號,121.5501833,25.005495,106,無評鑑資料,無評鑑資料,無評鑑資料,12,50,4.166666667,4.5
新北市立萬里幼兒園,公立,新北市,萬里區,新北市萬里區瑪鋉路221號2樓,121.6897359,25.1798818,105,107學年度,基礎評鑑,全數指標通過基礎評鑑,44,185,4.204545455,2.9
新北市萬里區萬里國民小學附設幼兒園,公立,新北市,萬里區,新北市萬里區瑪鋉路18號,121.6881873,25.1761066,76,107學年度,基礎評鑑,全數指標通過基礎評鑑,5,19,3.8,5
新北市萬里區大鵬國民小學附設幼兒園,公立,新北市,萬里區,新北市萬里區加投路14號,121.650965,25.208779,30,107學年度,基礎評鑑,全數指標通過基礎評鑑,33,165,5,5
新北市萬里區野柳國民小學附設幼兒園,公立,新北市,萬里區,新北市萬里區港東路167號,121.6893782,25.2054336,30,107學年度,基礎評鑑,全數指標通過基礎評鑑,6,23,3.833333333,4.2
新北市萬里區大坪國民小學附設幼兒園,公立,新北市,萬里區,新北市萬里區大坪路1號,121.63845,25.167115,30,107學年度,基礎評鑑,全數指標通過基礎評鑑,38,125,3.289473684,3.7
新北市私立大鵬幼兒園,私立,新北市,萬里區,新北市萬里區萬里加投70之3號1、2樓,121.6451965,25.2133746,216,107學年度,基礎評鑑,全數指標通過基礎評鑑,18,45,2.5,2.8
新北市私立天心幼兒園,私立,新北市,萬里區,新北市萬里區瑪鋉下街17號1、2樓,121.6907644,25.1781086,50,107學年度,追蹤評鑑,全數指標通過追蹤評鑑,27,105,3.888888889,3.8
新北市立金山幼兒園,公立,新北市,金山區,新北市金山區中山路236號,121.636599,25.222905,55,107學年度,基礎評鑑,全數指標通過基礎評鑑,38,190,5,4.5
新北市立金山幼兒園中正中華分班,公立,新北市,金山區,新北市金山區中正路134號1、2樓,121.6344,25.2219626,46,107學年度,基礎評鑑,全數指標通過基礎評鑑,12,59,4.916666667,2.7
新北市金山區三和國民小學附設幼兒園,公立,新北市,金山區,新北市金山區六股林口38號,121.6026077,25.2190132,30,107學年度,基礎評鑑,全數指標通過基礎評鑑,42,193,4.595238095,3.3
新北市金山區中角國民小學附設幼兒園,公立,新北市,金山區,新北市金山區海興路49號,121.630602,25.239723,30,107學年度,基礎評鑑,全數指標通過基礎評鑑,10,31,3.1,2.3
新北市金山區金美國民小學附設幼兒園,公立,新北市,金山區,新北市金山區忠孝一路111號,121.63677,25.220878,68,107學年度,基礎評鑑,全數指標通過基礎評鑑,14,62,4.428571429,5
新北市金山區金山國民小學附設幼兒園,公立,新北市,金山區,新北市金山區中山路234號,121.636599,25.222905,90,107學年度,基礎評鑑,全數指標通過基礎評鑑,24,84,3.5,3.5
財團法人天主教聖母聖心會附設新北市私立天仁幼兒園,私立,新北市,金山區,新北市金山區中正路25號1樓,121.5194939,25.0460568,60,107學年度,基礎評鑑,全數指標通過基礎評鑑,29,122,4.206896552,3.9
新北市板橋區莒光國民小學附設幼兒園,公立,新北市,板橋區,新北市板橋區莒光路163號,121.4743551,25.0250381,120,106學年度,基礎評鑑,全數指標通過基礎評鑑,36,94,2.611111111,3.7
新北市板橋區後埔國民小學附設幼兒園,公立,新北市,板橋區,新北市板橋區重慶路157號,121.4626692,25.0033516,120,106學年度,基礎評鑑,全數指標通過基礎評鑑,25,68,2.72,3.1
新北市立忠孝國民中學附設幼兒園,公立,新北市,板橋區,新北市板橋區成都街30號,121.4615907,25.0048191,120,106學年度,基礎評鑑,全數指標通過基礎評鑑,40,68,1.7,5
新北市板橋區溪洲國民小學附設幼兒園,公立,新北市,板橋區,新北市板橋區金門街289號,121.430882,24.987342,120,106學年度,基礎評鑑,全數指標通過基礎評鑑,21,103,4.904761905,4.7
新北市立江翠國民中學附設幼兒園,公立,新北市,板橋區,新北市板橋區松江街63號,121.4684587,25.0288652,60,106學年度,基礎評鑑,全數指標通過基礎評鑑,38,148,3.894736842,4.4
新北市板橋區板橋國民小學附設幼兒園,公立,新北市,板橋區,新北市板橋區文化路一段23號,121.4583053,25.0116333,180,106學年度,基礎評鑑,全數指標通過基礎評鑑,31,130,4.193548387,2.4
新北市板橋區江翠國民小學附設幼兒園,公立,新北市,板橋區,新北市板橋區文化路二段413號,121.474133,25.032317,120,106學年度,基礎評鑑,全數指標通過基礎評鑑,4,20,5,4.4
新北市板橋區大觀國民小學附設幼兒園,公立,新北市,板橋區,新北市板橋區大觀路一段30號,121.4479473,25.0089277,210,106學年度,基礎評鑑,全數指標通過基礎評鑑,39,164,4.205128205,3.9
新北市板橋區中山國民小學附設幼兒園,公立,新北市,板橋區,新北市板橋區大觀路二段59巷31號,121.4477275,25.0023051,180,106學年度,基礎評鑑,全數指標通過基礎評鑑,17,49,2.882352941,1.2
新北市板橋區重慶國民小學附設幼兒園,公立,新北市,板橋區,新北市板橋區廣和街31號,121.4623541,24.9943641,60,106學年度,基礎評鑑,全數指標通過基礎評鑑,18,59,3.277777778,4.2
新北市板橋區文德國民小學附設幼兒園,公立,新北市,板橋區,新北市板橋區英士路179號,121.4588092,25.0233131,120,106學年度,基礎評鑑,全數指標通過基礎評鑑,30,123,4.1,4.2
新北市板橋區海山國民小學附設幼兒園,公立,新北市,板橋區,新北市板橋區漢生東路280號,121.47092,25.009392,90,106學年度,基礎評鑑,全數指標通過基礎評鑑,10,46,4.6,3.2
新北市板橋區信義國民小學附設幼兒園,公立,新北市,板橋區,新北市板橋區四川路二段245巷60號,121.4526816,24.9917854,196,106學年度,基礎評鑑,全數指標通過基礎評鑑,26,130,5,1.4
新北市立重慶國民中學附設幼兒園,公立,新北市,板橋區,新北市板橋區國慶路221號,121.4630031,24.9986141,180,106學年度,追蹤評鑑,全數指標通過追蹤評鑑,16,75,4.6875,4.5
新北市立板橋幼兒園,公立,新北市,板橋區,新北市板橋區中正路375巷48號,121.4536,25.02027,126,106學年度,基礎評鑑,全數指標通過基礎評鑑,22,84,3.818181818,3.1
新北市立板橋幼兒園新民分班,公立,新北市,板橋區,新北市板橋區懷德街235巷2號,121.4811694,25.0285083,93,106學年度,基礎評鑑,全數指標通過基礎評鑑,40,116,2.9,4
新北市立板橋幼兒園和平分班,公立,新北市,板橋區,新北市板橋區重慶路355號,121.4642959,24.9977051,93,106學年度,基礎評鑑,全數指標通過基礎評鑑,41,144,3.512195122,2.8
新北市立板橋幼兒園公館分班,公立,新北市,板橋區,新北市板橋區光正街57號2樓,121.4616212,25.0176964,32,106學年度,基礎評鑑,全數指標通過基礎評鑑,37,141,3.810810811,3.1
新北市板橋區文聖國民小學附設幼兒園,公立,新北市,板橋區,新北市板橋區文聖街86號,121.4776744,25.0291921,212,106學年度,基礎評鑑,全數指標通過基礎評鑑,23,83,3.608695652,2.4
新北市立溪崑國民中學附設幼兒園,公立,新北市,板橋區,新北市板橋區大觀路三段50巷30號,121.431494,24.996868,106,106學年度,追蹤評鑑,全數指標通過追蹤評鑑,49,181,3.693877551,4.3
新北市板橋區沙崙國民小學附設幼兒園,公立,新北市,板橋區,新北市板橋區篤行路二段132號,121.4301153,24.9898701,196,106學年度,基礎評鑑,全數指標通過基礎評鑑,24,86,3.583333333,2.1
新北市板橋區新埔國民小學附設幼兒園,公立,新北市,板橋區,新北市板橋區陽明街206號,121.462376,25.025876,120,106學年度,基礎評鑑,全數指標通過基礎評鑑,3,11,3.666666667,2.6
新北市板橋區國光國民小學附設幼兒園,公立,新北市,板橋區,新北市板橋區中正路325巷30號,121.4530228,25.0191826,210,106學年度,基礎評鑑,全數指標通過基礎評鑑,35,130,3.714285714,4.4
新北市立新埔國民中學附設幼兒園,公立,新北市,板橋區,新北市板橋區新海路181號,121.4597502,25.0247941,240,106學年度,基礎評鑑,全數指標通過基礎評鑑,11,45,4.090909091,3.5
新北市板橋區實踐國民小學附設幼兒園,公立,新北市,板橋區,新北市板橋區實踐路93巷51號,121.4663974,25.0049815,256,106學年度,基礎評鑑,全數指標通過基礎評鑑,3,10,3.333333333,3.6
新北市板橋區埔墘國民小學附設幼兒園,公立,新北市,板橋區,新北市板橋區永豐街42之8號,121.4741019,25.0181471,240,106學年度,基礎評鑑,全數指標通過基礎評鑑,36,108,3,3.9
新北市私立忠孝幼兒園,私立,新北市,板橋區,新北市板橋區忠孝路忠義巷19弄9、11號,121.4664239,25.0041993,60,106學年度,基礎評鑑,全數指標通過基礎評鑑,19,78,4.105263158,4.1
新北市私立寶貝媽咪幼兒園,私立,新北市,板橋區,新北市板橋區莊敬路46號2樓之2,121.4730469,25.0274774,60,106學年度,基礎評鑑,全數指標通過基礎評鑑,2,10,5,3
新北市私立愛唯兒幼兒園,私立,新北市,板橋區,新北市板橋區大同街50巷18號1、2、3樓,121.478753,25.026884,180,106學年度,基礎評鑑,全數指標通過基礎評鑑,29,104,3.586206897,2.2
新北市私立幼祥幼兒園,私立,新北市,板橋區,新北市板橋區中正路360巷45、47、49號1樓,121.4563032,25.023014,84,106學年度,基礎評鑑,全數指標通過基礎評鑑,9,31,3.444444444,3
新北市私立小奈米幼兒園,私立,新北市,板橋區,新北市板橋區四川路2段23之1、23之2、25之1、25之2號2、3樓,121.4546953,24.995576,95,106學年度,無評鑑分類,全數指標改善完畢,46,129,2.804347826,4.2
新北市私立寶仁幼兒園,私立,新北市,板橋區,新北市板橋區文化路二段182巷1弄8號2樓、3弄9號1樓,121.471514,25.027621,82,106學年度,基礎評鑑,全數指標通過基礎評鑑,42,193,4.595238095,4.7
新北市私立凱思莉幼兒園,私立,新北市,板橋區,新北市板橋區文聖街137號1樓、夾層、b1,121.478379,25.028503,28,106學年度,基礎評鑑,全數指標通過基礎評鑑,46,156,3.391304348,3.5
新北市私立省思幼兒園,私立,新北市,板橋區,新北市板橋區篤行路三段玉平巷101號1樓,121.4278802,24.9850595,40,106學年度,追蹤評鑑,全數指標通過追蹤評鑑,24,94,3.916666667,3.3
新北市私立光星幼兒園,私立,新北市,板橋區,新北市板橋區文化路一段188巷26號,121.4663874,25.0192501,60,106學年度,基礎評鑑,全數指標通過基礎評鑑,29,41,1.413793103,2.5
新北市私立育樂幼兒園,私立,新北市,板橋區,新北市板橋區民權路260巷1弄14、16號1樓,121.4584718,25.0157353,90,106學年度,基礎評鑑,全數指標通過基礎評鑑,48,216,4.5,5
新北市私立晨暘幼兒園,私立,新北市,板橋區,新北市板橋區文化路一段270巷3弄3、5、7、9號1、2樓,121.468236,25.0209712,140,106學年度,追蹤評鑑,全數指標通過追蹤評鑑,40,200,5,4.5
陽光森林文教股份有限公司臺北縣分公司附設新北市私立陽光小子幼兒園,私立,新北市,板橋區,新北市板橋區三民路二段215號1、2樓,121.479077,25.01296,62,106學年度,基礎評鑑,全數指標通過基礎評鑑,4,14,3.5,2.4
新北市私立道安幼兒園,私立,新北市,板橋區,新北市板橋區大明街15巷15、17、19號1樓及15巷15號2樓、15巷17之1號2樓、15巷19之1號2樓,121.4586247,25.0021317,70,106學年度,基礎評鑑,全數指標通過基礎評鑑,42,168,4,4.3
新北市私立悅嘉幼兒園,私立,新北市,板橋區,新北市板橋區雙十路二段149號2樓,121.4747652,25.0280192,74,106學年度,基礎評鑑,全數指標通過基礎評鑑,5,18,3.6,4
新北市私立立信幼兒園,私立,新北市,板橋區,新北市板橋區國泰街75巷49、51、53號1樓,121.468101,25.005207,57,106學年度,基礎評鑑,全數指標通過基礎評鑑,35,102,2.914285714,2.8
新北市私立雙成幼兒園,私立,新北市,板橋區,新北市板橋區縣民大道三段133巷22號1樓,121.4775481,25.0238316,40,106學年度,基礎評鑑,全數指標通過基礎評鑑,29,81,2.793103448,3.5
新北市私立忠山幼兒園,私立,新北市,板橋區,新北市板橋區中正路275巷62弄1、3、5號1樓,121.453065,25.0183712,57,106學年度,基礎評鑑,全數指標通過基礎評鑑,37,152,4.108108108,2.8
新北市私立幼暉幼兒園,私立,新北市,板橋區,新北市板橋區民族路289巷2號1樓,121.47174,25.00698,46,106學年度,基礎評鑑,全數指標通過基礎評鑑,6,16,2.666666667,3.5
新北市私立遠東幼兒園,私立,新北市,板橋區,新北市板橋區成功路33號1樓,121.475112,25.017524,37,106學年度,基礎評鑑,全數指標通過基礎評鑑,29,113,3.896551724,3.1
新北市私立愛唯揚幼兒園,私立,新北市,板橋區,新北市板橋區大同街97號1、2、3樓,121.4802271,25.0286064,70,106學年度,追蹤評鑑,全數指標通過追蹤評鑑,12,42,3.5,2.4
財團法人台北市中華基督教青年會附設新北市私立板新幼兒園,私立,新北市,板橋區,新北市板橋區板新路27號1、2、3樓,121.4746123,25.0129414,94,106學年度,基礎評鑑,全數指標通過基礎評鑑,37,148,4,3.2
新北市私立蘇格拉底幼兒園,私立,新北市,板橋區,新北市板橋區莒光路211號2、3樓,121.474229,25.0231157,100,106學年度,基礎評鑑,全數指標通過基礎評鑑,43,215,5,4
新北市私立寶貝世界幼兒園,私立,新北市,板橋區,新北市板橋區中正路332號2樓,121.454373,25.0222442,100,106學年度,基礎評鑑,全數指標通過基礎評鑑,41,205,5,3.6
新北市私立大業幼兒園,私立,新北市,板橋區,新北市板橋區重慶路278巷17號1樓,121.461707,24.99934,40,106學年度,基礎評鑑,全數指標通過基礎評鑑,16,67,4.1875,4.2
新北市私立鴻園幼兒園,私立,新北市,板橋區,新北市板橋區長安街331巷77、79號1、2樓,121.4725691,25.0128711,50,106學年度,追蹤評鑑,全數指標通過追蹤評鑑,48,216,4.5,3.1
新北市私立培揚幼兒園,私立,新北市,板橋區,新北市板橋區貴興路62、64號1樓,121.4567758,25.0029972,38,106學年度,基礎評鑑,全數指標通過基礎評鑑,15,56,3.733333333,2.5
新北市私立福音幼兒園,私立,新北市,板橋區,新北市板橋區民族路8號2樓,121.461588,25.009659,60,106學年度,基礎評鑑,全數指標通過基礎評鑑,2,7,3.5,4.7
新北市私立小豆芽四維幼兒園,私立,新北市,板橋區,新北市板橋區四維路257號2樓,121.46339,25.0279821,61,106學年度,追蹤評鑑,全數指標通過追蹤評鑑,11,41,3.727272727,3.9
新北市私立緹家寶幼兒園,私立,新北市,板橋區,新北市板橋區新海路416號1、2、3樓,121.4584711,25.0272187,68,106學年度,追蹤評鑑,全數指標通過追蹤評鑑,47,165,3.510638298,3.1
新北市私立小康幼兒園,私立,新北市,板橋區,新北市板橋區長安街138巷7弄36、38號1、2樓,121.473863,25.008885,48,106學年度,基礎評鑑,全數指標通過基礎評鑑,49,142,2.897959184,4.7
新北市私立和平幼兒園,私立,新北市,板橋區,新北市板橋區民權路202巷17弄70號,121.4578901,25.0168627,180,106學年度,追蹤評鑑,全數指標通過追蹤評鑑,34,143,4.205882353,5
新北市私立致理幼兒園,私立,新北市,板橋區,新北市板橋區介壽街80號,121.469728,25.018654,56,106學年度,基礎評鑑,全數指標通過基礎評鑑,22,70,3.181818182,4.2
財團法人新北市大觀書社附設新北市私立大觀幼兒園,私立,新北市,板橋區,新北市板橋區西門街5號,121.4558606,25.0114422,360,106學年度,追蹤評鑑,全數指標通過追蹤評鑑,8,38,4.75,3.5
新北市私立雨農幼兒園,私立,新北市,板橋區,新北市板橋區雨農路27巷2號2樓,121.4612593,25.0240924,168,106學年度,基礎評鑑,全數指標通過基礎評鑑,9,42,4.666666667,2.5
新北市私立童心幼兒園,私立,新北市,板橋區,新北市板橋區文化路一段188巷30號1樓,121.466487,25.0191829,41,106學年度,基礎評鑑,全數指標通過基礎評鑑,8,40,5,4.2
新北市私立漢林堡幼兒園,私立,新北市,板橋區,新北市板橋區光正街12-1號,121.463032,25.017171,34,106學年度,基礎評鑑,全數指標通過基礎評鑑,7,31,4.428571429,3.5
新北市私立童苑幼兒園,私立,新北市,板橋區,新北市板橋區南雅南路二段144巷57號1、2樓,121.450191,24.995047,38,106學年度,基礎評鑑,全數指標通過基礎評鑑,43,181,4.209302326,3.1
新北市私立嘉穎幼兒園,私立,新北市,板橋區,新北市板橋區文化路二段92號1樓、92號2樓、92之1號1樓,121.4699222,25.026091,190,106學年度,基礎評鑑,全數指標通過基礎評鑑,30,123,4.1,4.9
新北市私立艾法薇爾幼兒園,私立,新北市,板橋區,新北市板橋區雙十路二段85號1樓及87號1樓、87號2樓,121.475451,25.0270339,218,106學年度,追蹤評鑑,全數指標通過追蹤評鑑,42,210,5,3.7
新北市私立嘉盛幼兒園,私立,新北市,板橋區,新北市板橋區實踐路76之1號2樓、76之2號3樓,121.4639176,25.0053784,84,106學年度,基礎評鑑,全數指標通過基礎評鑑,29,64,2.206896552,3.5
新北市私立田園幼兒園,私立,新北市,板橋區,新北市板橋區信義路279巷19-2號、19-3號,121.464653,24.990245,60,106學年度,基礎評鑑,全數指標通過基礎評鑑,21,67,3.19047619,4.6
新北市私立喬幼光明幼兒園,私立,新北市,板橋區,新北市板橋區光明街68號1樓、68之1號2樓,121.4615037,25.0026914,93,106學年度,追蹤評鑑,全數指標通過追蹤評鑑,39,195,5,4.1
新北市私立喬幼幼兒園,私立,新北市,板橋區,新北市板橋區光明街72號、72之1號、74號、74之1號,121.4615037,25.0026914,80,106學年度,基礎評鑑,全數指標通過基礎評鑑,42,97,2.30952381,3.5
新北市私立寶貝媽咪資優幼兒園,私立,新北市,板橋區,新北市板橋區莊敬路46號2樓之3,121.4730469,25.0274774,74,106學年度,基礎評鑑,全數指標通過基礎評鑑,43,146,3.395348837,4.5
新北市私立康園幼兒園,私立,新北市,板橋區,新北市板橋區文聖街89巷17號2樓、19號3樓,121.478091,25.030447,58,106學年度,基礎評鑑,全數指標通過基礎評鑑,22,110,5,4.1
新北市私立幸福幼兒園,私立,新北市,板橋區,新北市板橋區幸福路32巷2弄2號1樓、4號1樓,121.461766,25.02064,65,106學年度,基礎評鑑,全數指標通過基礎評鑑,46,147,3.195652174,4.5
新北市私立恬馨幼兒園,私立,新北市,板橋區,新北市板橋區篤行路二段67巷5號1樓、77巷3號1樓及2樓,121.4320175,24.9918952,120,106學年度,基礎評鑑,全數指標通過基礎評鑑,17,83,4.882352941,2.7
新北市私立悅淨幼兒園,私立,新北市,板橋區,新北市板橋區東門街30之2號1樓之66、67、68、69,121.458121,25.008096,32,106學年度,基礎評鑑,全數指標通過基礎評鑑,5,25,5,4.1
新北市私立智翔幼兒園,私立,新北市,板橋區,新北市板橋區陽明街134號及136號1樓、2樓,121.46422,25.022983,50,106學年度,追蹤評鑑,全數指標通過追蹤評鑑,31,136,4.387096774,3.6
新北市私立大恩幼兒園,私立,新北市,板橋區,新北市板橋區介壽街23號及25號1樓,121.468148,25.020142,42,106學年度,基礎評鑑,全數指標通過基礎評鑑,41,135,3.292682927,4.7
新北市私立大同幼兒園,私立,新北市,板橋區,新北市板橋區自由路26巷24號及26號1樓,121.466582,25.022294,66,106學年度,基礎評鑑,全數指標通過基礎評鑑,35,165,4.714285714,5
新北市私立吉智幼兒園,私立,新北市,板橋區,新北市板橋區存德街20號1樓、2樓、3樓、存德街20之1號1樓及2樓,121.4297453,24.9917845,158,106學年度,基礎評鑑,全數指標通過基礎評鑑,40,176,4.4,3.6
新北市私立優兒幼兒園,私立,新北市,板橋區,新北市板橋區成都街103號1樓,121.4636209,25.0053711,29,106學年度,基礎評鑑,全數指標通過基礎評鑑,2,6,3,2.6
新北市私立喬一幼兒園,私立,新北市,板橋區,新北市板橋區三民路一段120號2樓、122號2樓及126號2樓,121.4791982,25.0206751,100,106學年度,基礎評鑑,全數指標通過基礎評鑑,3,12,4,4.7
